CharityRegistrationNumber,Name,StreetAddressCity,StreetAddressCountry,StreetAddressLine1,StreetAddressLine2,StreetAddressPostcode,StreetAddressSuburb,Latitude,Longitude
CC48103,Aiga Salevalasi Charitable Trust,Auckland,,2 Clayburn Road, ,0602,Glen Eden,-36.9093554,174.6525624
CC48519,Community Living Limited,Hamilton,,180 Collingwood Street, ,3204,Hamilton Lake,-37.7909359,175.2783095
CC49017,CORE Education Charitable Trust,Christchurch,,323 Madras Street, ,8013,Christchurch Central,-43.5252612,172.6423469
CC50425,Journey New Zealand Trust,Ashhurst,,6 Kaka Street,RD 14,4884,Pohangina,-40.171327,175.7939517
CC48539,Music Futures Incorporated,Wellington,,17 Helen Street, ,6021,Brooklyn,-41.3034848,174.7625844
CC48540,Tumanako Hou Trust Whakatane,Whakatane,,"First Floor, 4 Canning Place",Whakatane 3120,3120, ,-37.9519068,176.9969006
CC48800,Nga Wairiki Ki Uta Charitable Trust,Whanganui,,72 Putiki Drive, ,4500,Putiki,-39.9425338,175.053769
CC48411,Otautahi Women's Refuge Incorporated,,,,,,,,
CC48597,Pike River Miners Family Educational Trust,Greymouth,,24 Guinness Street,,7805,,-42.4494702,171.2098611
CC48813,Papawhenua Charitable Trust,Marton,,85 Hendersons Line,Marton 4710,4710, ,-40.0834086,175.3705019
CC48389,Dream Chaser Foundation - A Chace Topperwien Charity,Ohope,,253 Harbour Road,,3121,Ōhope,-37.98079,177.0980094
CC48897,Human Aid Focus New Zealand,Palmerston North,,50 Tip Road, ,4412,Awapuni,-40.3861351,175.5830501
CC48109,Hohepa Services Limited,Hawkes Bay,,State Highway 2, ,4102,Clive,-39.3638627,176.9019139
CC48097,Templeton RSA Poppy Charitable Trust,Christchurch,,342 West Melton Road,RD 5,7675,West Melton,-43.5507237,172.3696656
CC48094,The Waterfront Theatre Trust,Auckland,,487 Dominion Road, ,1024,Mount Eden,-36.8859492,174.7473972
CC48106,Christian Schools of Auckland Charitable Trust,Auckland,,77 Rogers Road, ,2102,Manurewa,-37.02864539999999,174.9003377
CC48114,The First Samoan Full Gospel Pentecostal Church (Stokes Valley) Trust Board,Lower Hutt,,151 Stokes Valley Road, ,5019,Stokes Valley,-41.1708652,174.9833145
CC48412,Wainuiomata Choir Incorporated,Lower Hutt,,9 Sheehy Grove, ,5014,Wainuiomata,-41.2636683,174.9430692
CC48104,The Edith Collier Trust,Wanganui,,"BELTON, SMITH & ASSOCIATES LTD",PO Box 4386,4541, ,-39.9301234,175.0500071
CC49276,Northern Emerging Talents Trust,Tutukaka,,140 Lawson Drive,,0173, ,-35.634442,174.5377449
CC48258,Auckland Youth Arts Trust,Auckland,,71D Lake Road, ,0624,Devonport,-36.8126275,174.7919931
CC48158,Christchurch Coastal Pathway Group Incorporated,Christchurch,,3 McCormacks Bay Road, ,8081,Mount Pleasant,-43.5560177,172.7206175
CC48208,The Healing Hands Spiritualist Church Papakura Incorporated,Auckland,,Wellington Park,1 Great South Road,2113,Papakura,-37.0543208,174.9323313
CC50812,New Zealand Tango Festival Charitable Trust,Wellington,,127A Abel Smith Street, ,6011,Aro Valley,-41.2950605,174.7698047
CC48130,LOVE OF JESUS CHURCH,Auckland,,15 Rimu Road, ,2102,Manurewa,-37.0328341,174.8999221
CC48598,MANUKAU NEW LIFE COMMUNITY TRUST,Auckland,,12 Jellicoe Road, ,2102,Manurewa,-37.0189696,174.8886325
CC48007,Maniototo Anglican Church Trust No. 2,Ranfurly,,5106 Danseys Pass Road,RD 2,9396,Naseby,-45.0264837,170.15302
CC48149,Prebbleton School Parent Teacher Association,Prebbleton,,Prebbleton School,4 Blakes Road,7604, ,-43.5776612,172.5137446
CC48225,Nelson Samba Collective Charitable Trust,Nelson,,7 Dodson Valley Road, ,7010,Atawhai,-41.2367803,173.3181809
CC48443,Tatum Scout Memorial Trust,Wellington,,1 Kaiwharawhara Road, ,6035,Kaiwharawhara,-41.2600742,174.7893409
CC49463,Sri Veda Vidya Pitham Incorporated,Auckland,,Flat 1,1 Amberwood Drive,2013,Northpark,-36.92019459999999,174.9158326
CC50234,Tere Waitomo Community Trust,Waitomo,,709 Waitomo Caves Road,Waitomo 3977,3977, ,-38.262211,175.1144912
CC48418,Excellere College Support Group,Whangarei,,39 Great North Road, ,0112,Kamo,-35.6694439,174.2973748
CC49222,Opape Marae and Urupa Trustees,Opotiki,,120A Wellington Street,,3122, ,-38.0145605,177.2892213
CC48830,Waitakere Indian Association,Auckland,,399 Don Buck Road, ,0614,Massey,-36.8346347,174.603468
CC48410,Young Muslim Women's Association Incorporated,Auckland,,406 Richardson Road, ,1041,Mount Roskill,-36.909924,174.7258515
CC48335,Highland Home Christian Camp,Ashhurst,,1352 Pohangina Valley East Road,RD 14,4884,Pohangina,-40.1261882,175.8618516
CC48169,New Zealand Chinese Methodist Charitable Trust,Auckland,,37 Divich Avenue, ,610,Te Atatu South,-36.87935,174.6513234
CC50154,Ararimu Pre-School Incorporated,RD 3 Drury,,CNR Ararimu 1 Steel Road, ,2579,Ararimu,-37.140668,175.0373941
CC48139,The YMCA Palmerston North Community Trust,Wanganui,,125 Grey Street, ,4501,Springvale,-39.9290186,175.031237
CC48618,Te Maata Marae and Reihana Taukawau Waahi Tapu Trust,Whangarei,,2304 Whangarei Heads Road,RD 4,0174,Whangarei Heads,-35.8250507,174.5232783
CC48138,Porirua City Band Youth Trust,Porirua,,2B Wi Neera Drive, ,5022,Porirua City Centre,-41.12732,174.8402559
CC48014,The Church of God in Wellington Incorporated,Hutt City,,Moera Community Hall,Randwick road,5010,Moera,-41.2245696,174.9056422
CC48244,New Zealand Essential Tremor Support Group Incorporated,Auckland,,12 Coates Avenue, ,1071,Orakei,-36.8540976,174.8128395
CC48147,Vernon Tews Charitable Trust,Auckland,,41A Merani Street,,0622,Narrow Neck,-36.8090048,174.7959678
CC48159,Northern Community Family Service,Kerikeri,,43 Hobson Avenue,,230, ,-35.2297107,173.9498039
CC48148,Ray Watts Charitable Trust,Wellington,,Level 14,45 Johnston Street,6011,Wellington Central,-41.28276779999999,174.7763466
CC48193,The Jackson Family Foundation,Auckland,,Level 13,41 Shortland Street,1010, ,-36.84700309999999,174.7677706
CC48414,Ryder-Cheshire Foundation Waikato,Hamilton,,97 Sandwich Road, ,3200,Saint Andrews,-37.7493402,175.2534044
CC48337,Glen Eden Community and Recreation Centre Incorporated,Auckland,,111 Glendale Road, ,0602,Glen Eden,-36.9189386,174.6492161
CC51337,Ohotu 1C1 Matahiwi Marae Trustees,Whanganui,,4 Kea Place, ,4500,Whanganui East,-39.9043127,175.0671389
CC48323,Intercp NZ,Auckland,,3 Dianthus Place,,0630,Browns Bay,-36.7243189,174.7308898
CC49075,Creative Waikato,Hamilton,,11 Garden Place, ,3204,Hamilton Central,-37.78798570000001,175.2821331
CC49392,Beerescourt Tennis Club Incorporated,Hamilton,,68 Maeroa Road, ,3200,Maeroa,-37.7723092,175.2613529
CC48413,Tiger Charitable Trust,Auckland,,LEVEL 1,5 Crummer Road,1021,Grey Lynn,-36.8591435,174.7499351
CC49668,Carey Trust 2012,Wellington,,17 Oxford Street, ,5028,Tawa,-41.1721288,174.8262962
CC48260,Hosea Charitable Trust,Tauranga,,12 Eleventh Avenue,,3110, ,-37.7015161,176.1656714
CC48299,Rei Foundation Limited,Auckland,,13/143 Quay Street, ,1010,Auckland Central,-36.8396446,174.7655329
CC48429,Ethos Foundation ,Auckland,,10 Taharoto Road, ,622,Takapuna,-36.7902286,174.7611758
CC48972,Kiwitea Water Scheme Trust,Palmerston North,,GREER & WONG LTD,233 Broadway Avenue,4414, ,-40.35076540000001,175.619675
CC48314,New Zealand Sikh Community Tauranga Trust,Tauranga,,43 Burrows Street, ,3112,Tauranga South,-37.7092706,176.1640883
CC48420,The Pitt Island Barge Society,Chatham Islands,,Pitt Island,,, ,-44.2898582,-176.2260131
CC48100,Pilgrim Baptist Church,Auckland,,54 Winsford Street,,2102,Manurewa,-37.0242491,174.881201
CC48534,Shekinah Tabernacle,Lower Hutt,,113 George Street, ,5019,Stokes Valley,-41.1680794,174.9812215
CC48357,Naseby Development Charitable Trust,Oamaru,,78 Reservoir Road, ,9400,Oamaru North,-45.0799157,170.9702843
CC48815,Mount Egmont Alpine Club Incorporated,Hawera,,PO Box 62,,4640, ,-39.5891194,174.2826385
CC48404, Korean Positive Ageing Charitable Trust,Auckland,,160 Murphys Road, ,2019,Flat Bush,-36.9792331,174.919959
CC48242,Asert-Tatou Development Trust,Porirua,,Raiha Street, ,5022,Kenepuru,-41.1440999,174.8288331
CC48073,Stepping Stone Ministries Trust,Tauranga,,161 Peers Road,RD 1,3171, ,-37.8429429,176.0738077
CC48555,Ross Charitable Trust,Auckland,,Level 9 Southern Cross Bld,59 High Street,,CBD,-36.8489377,174.7660721
CC48184,SOUTH PACIFIC TRUE BUDDHAS CHARITABLE TRUST BOARD ,Auckland,,80 Yates Road, ,2024,Mangere East,-36.9627616,174.8192719
CC48352,Forward Foundation,Christchurch,,354A Ilam Road, ,8053,Bryndwr,-43.5100188,172.5878687
CC49795,Friends of Puke Ariki Incorporated,New Plymouth,,1 Ariki Street,New Plymouth 4310,4310, ,-39.0572043,174.071318
CC48192,Multiples NZ Incorporated,Auckland,,2 Golfland Drive, ,2013,Golflands,-36.9217118,174.9127575
CC49619,New Zealand Care Society Incorporated,Greytown,,20B Cotter Street,,5712, ,-41.08725159999999,175.4480634
CC48093,Byte Charitable Trust,Christchurch,,151 Cambridge Terrace, ,8013,Christchurch Central,-43.53009050000001,172.6328345
CC48507,Fair Food,Auckland,,Unit 2, 624 Rosebank Road,1026,Avondale,-36.8739251,174.6693185
CC48811,Ardour Charitable Trust,Christchurch,,14A Shaftesbury Street, ,8042,Avonhead,-43.5139349,172.5605112
CC49567,The New Zealand Catalina Preservation Society Incorporated,Papakura,,PO Box 72527,,2244, ,-37.0623638,174.9478327
CC48527,St Christopher's Trust,Auckland,,20 Minnehaha Avenue,88 Harold Street,0622,Takapuna,-36.778866,174.7767185
CC48773,Jack Checkley Charitable Trust,Blenheim,,21 Bells Road,RD 2,7272, ,-41.5125328,173.9061662
CC48355,Tautoko Mai Sexual Harm Support Services Trust,Tauranga,,Unit G,120 Hamilton Street,3110, ,-37.6826274,176.1645341
CC48394,Seniornet Rotorua Incorporated,Rotorua,,11 Wylie Street, ,3010,Glenholme,-38.1542271,176.2520276
CC49587,Day By Day Christian Ministries Charitable Trust,Auckland,,Flat 1,5 Treagon Place,2025,Papatoetoe,-36.9777145,174.8347767
CC48327,Heart For Youth Charitable Trust,Auckland,,48A Cresta Avenue, ,626,Beach Haven,-36.7877164,174.6854963
CC48111,St. Thomas Aquinas School Parent Teacher Association,Winton,,1 Church Street,,9720, ,-46.1505162,168.3277315
CC48217,Fit Futures Charitable Trust,Hamilton,,74 Howell Avenue, ,3216,Riverlea,-37.8044051,175.3179136
CC48131,Takanini Community Church Property Trust,Papakura,,27 Fairview Avenue, ,2113,Opaheke,-37.0756732,174.9457337
CC48434,Sydenham Botanic Park Funding Trust,Tauranga,,63 Grace Road, ,3112,Tauranga South,-37.7062721,176.1631107
CC48076,Peria Assembly of God Trust Board,Matamata,,12 Sheffield Street,,3400, ,-37.8136892,175.7628948
CC50039,Tangata Atumotu Trust,Christchurch,,28 Bealey Avenue, ,8013,Christchurch Central,-43.5211561,172.6286736
CC49646,Oraka Aparima Runaka Holdings Limited,Riverton,,175 Palmerston Street,,9822, ,-46.3528777,168.0131096
CC48153,Chinese Christian Mission NZ Trust,Auckland,,20 Amersham Way, ,2104,Manukau,-36.9918819,174.8785492
CC49122,Auckland Tuhoe Society Incorporated,Auckland,,10 Tripoli Road, ,1072,Panmure,-36.9002565,174.8585045
CC48401,Word Of Truth Ministries ,Auckland,,6 Franshell Crescent, ,2013,East Tamaki,-36.9400662,174.9063301
CC48239,Cromwell Bike Park Incorporated,Cromwell,,271 Bannockburn Road,RD 2,9384, ,-45.0747581,169.1728672
CC48230,Life In Vacant Spaces Charitable Trust,Christchurch,,6 Show Place, ,8024,Addington,-43.5414,172.6033295
CC48695,Kia Ora FM 89.8 Trust,Palmerston North,,140 Maxwells Line, ,4412,Awapuni,-40.3791599,175.5842512
CC49126,Hibiscus Coast Orchid Society,Silverdale,,26A Ormonde Drive,,0932, ,-36.6143952,174.6684873
CC48744,Nga Tohunga o Te Moana a Toi,Whakatane,,C/O GLENDA STEWART  213 Rewatu Road,RD 1,3191, ,-37.9824015,176.9807685
CC48026,Adullam Humanitarian Aid Trust,Auckland,,20 Amersham Way, ,2104,Manukau,-36.9918819,174.8785492
CC48180,St John's School Parent Teacher & Friends Association,Auckland,,St John's School,87A Penzance Road,630,Mairangi Bay,-36.7379722,174.7426152
CC48038,Remarkable Theatre Incorporated,Queenstown,,c/o Showbiz Queenstown,"29, Isle Street",9300, ,-45.031159,168.65598
CC49332,Maori Women's Development Incorporated,Wellington,,78 Victoria Street, ,6011,Wellington Central,-41.2886977,174.7758166
CC49153,LEARNING ENVIRONMENTS NEW ZEALAND,Auckland,,2 Marston Street, ,1052,Parnell,-36.8503555,174.7783077
CC48331,Lightstream International Trust,Papakura,,Unit 6,71 Hingaia Road,2113,Karaka,-37.0743486,174.9231811
CC48277,Marshall Laing Music School Charitable Trust,Auckland,,39 Marshall Laing Avenue, ,1041,Mount Roskill,-36.9160369,174.7185671
CC48353,Rotary Club Of Invercargill South Inc Charitable Trust,Invercargill,,19 King Street, ,9810,Windsor,-46.3985678,168.3627925
CC48370,The Swedish School Association in the Bay of Plenty,Tauranga,,41 Cook Street, ,3112,Gate Pa,-37.709228,176.1427685
CC48117,Christ's Commission Fellowship New Zealand Trust,Auckland,,3 Cheval Drive, ,0629,Totara Vale,-36.7628183,174.7262095
CC49010,Rotorua Pacific Islands Development Charitable Trust,Rotorua,,1334 Hinemoa Street,Rotorua 3010,3010,Mangakakahi,-38.13823989999999,176.2459779
CC48265,Hawea Food Forest,Wanaka,,286 Lakeview Terrace,RD 2,9382,Lake Hawea,-44.6100739,169.2796822
CC48690,Envirohub Marlborough Charitable Trust,Picton,,14 Auckland Street,Picton 7220,7220, ,-41.2895816,174.0059388
CC48279,Marjorie Nightingale Singing Scholarship,Nelson,,78 Selwyn Place,,7010, ,-41.2754597,173.2854757
CC48515,Southern Cross Hospitals Palmerston North Partnership Limited,Auckland,,"Level 14, ANZ Centre",23-29 Albert Street,1010,Auckland Central,-36.8455854,174.7635318
CC48564,Circability Trust,Auckland,,203-271 Victoria Street West, ,1010,Auckland Central,-36.8479757,174.7551504
CC48867,FEDERATION DES ALLIANCES FRANCAISES DE NOUVELLE-ZELANDE INCORPORATED,Nelson,,4 Taunton Place, ,7011,Stoke,-41.3092507,173.2435505
CC48281,Family Builders International,Auckland,,47 Mount Roskill Road, ,1041,Mount Roskill,-36.9075719,174.7372922
CC49190,Nga Hau E Wha Maara Kai Charitable Trust,Taumarunui,,4 Bp Road,Taumarunui 3920,3920, ,-38.8819492,175.3028509
CC48802,WOOMB NZ Charitable Trust,Rangiora,,9 Good Street,,7400, ,-43.3026977,172.5939271
CC49013,Yaldhurst Tennis Club Incorporated,Christchurch,,The Yaldhurst Domain, School Road,,Yaldhurst,-43.5093255,172.5005456
CC49693,New Zealand Infant and Toddler Consortium,Henderson,,41 Arrowsmith Road,RD 2,0782,Waitākere,-36.8473266,174.5223868
CC48677,Waikato Ethnic Family Services Trust,Hamilton,,14 Karen Crescent, ,3204,Dinsdale,-37.8000903,175.2503228
CC48317,Rarangi Surf Life Saving Club Incorporated,Blenheim,,Whites Bay,Port Underwood Rd,7273,Rarangi,-41.3847701,174.057372
CC48779,Climax 1650 Steam Trust Board,Waiheke Island,,41 Burrell Road,,1081,Oneroa,-36.79371740000001,175.0196986
CC48490,New Zealand Secondary Schools Athletic Association Incorporated,Tauranga,,664 Cameron Road, ,3112,Tauranga South,-37.702167,176.1562515
CC49307,Te Runanga o Ngati Kea Ngati Tuara Charitable Trust,Rotorua,,28 Tarewa Road,,3010, ,-38.1318278,176.241308
CC48707,The Good Shepherd New Zealand Trust,Auckland,,Level 4,48 High Street,1010,Auckland Central,-36.8483896,174.766485
CC48632,Civic Property Pool,Wellington,,116 Lambton Quay,114 - 118 Lambton Quay,6011,Wellington Central,-41.2802795,174.7756779
CC48305,Martinborough Museum,Martinborough,,7 Memorial Square,,5711, ,-41.2189474,175.4602201
CC48358,Tax Policy Charitable Trust,Wellington,,45 Johnston Street,Level 7,6011,Wellington Central,-41.28276779999999,174.7763466
CC48774,Ellesmere Heritage Park Trust,Leeston,,1618 Leeston Road,RD 3,7683, ,-43.7553755,172.3128118
CC48563,Mauao Performing Arts Centre Charitable Trust,Mount Maunganui,,11 Totara Street,,3116, ,-37.6436188,176.1862743
CC48243,Rimu Home and School Committee,Invercargill,,442 Rimu Road,RD 1,9871, ,-46.4004097,168.5008858
CC48603,Komiti Marae Orakei Trust,Auckland,,59B Kitemoana Street,Orakei,1071,Orakei,-36.8489314,174.8223886
CC48489,Methven Netball Club Incorporated,Methven,,156 Forest Drive,,7730, ,-43.6271084,171.6356051
CC48933,South Canterbury Highland Pipe Band,Timaru,,2 Turnbull Street,Timaru 7910,7910, ,-44.4002265,171.2574723
CC48320,Shining Lights Trust Board,Tauranga,,252 Otumoetai Road, ,3110,Otumoetai,-37.681225,176.1356285
CC48778,Tuapeka Aquatic Centre Incorporated,Lawrence,,6 Blue Spur Road,RD 3,9593, ,-45.9052095,169.6823323
CC48449,The Breast Room In The House,Dunedin,,South City Mall,Cargills corner,9012,South Dunedin,-45.89274409999999,170.4998977
CC48328,Arrow Leadership NZ Trust,Christchurch,,35B Gunns Crescent, ,8022,Cashmere,-43.5729894,172.6379437
CC48304,St Barnabas Fendalton Trust,Christchurch,,8 Tui Street, ,8041,Fendalton,-43.5195438,172.5970853
CC48347,U3A Port Hills Incorporated,Christchurch,,2 Calverton Place, ,8025,Halswell,-43.575643,172.5540527
CC48445,Arborfield Sanctuary Charitable Trust,Wellsford,,199 Shepherd Road,RD 5,975, ,-36.2599194,174.5404237
CC48407,Community Education Trust Auckland,Auckland,,"Level 5, 55 Anzac Avenue", ,1010,Auckland Central,-36.8471204,174.7719067
CC49386,Historic Places Manawatu-Horowhenua Incorporated,Palmerston North,,231 College Street, ,4412,West End,-40.3678016,175.6028966
CC48871,The Korean Helpline,Christchurch,,104 Riccarton Road, ,8041,Riccarton,-43.5295835,172.6005877
CC48233,Our Lady Of Victories School Parents and Friends Association,Christchurch,,106 Main South Road, ,8042,Sockburn,-43.5360898,172.5591196
CC50032,ProCare Charitable Foundation,Wellington,,Public Trust Charities,"Level 8, 22 Willeston Street",6011, CBD,-41.2864564,174.7767067
CC49379,Whitford Forrest Archers Incorporated,Howick,,52 Pearson Road,RD 1,2571, ,-36.9400881,174.940087
CC48366,Jesus Calls New Zealand Trust,Auckland,,Suite 1,80 Carr Road,1041,Mount Roskill,-36.9123784,174.749196
CC48667,The New Zealand - Viet Nam Health Trust,Wellington,,55 Roseneath Terrace, ,6011,Roseneath,-41.2956675,174.8011154
CC48823,Waikawa Marae,Picton,,210 Waikawa Road, ,7220,Waikawa,-41.2763013,174.0296076
CC51051,The Lions Clubs New Zealand Charitable Trust,Warkworth,,20 Baxter Street,Warkworth 0910,0910, ,-36.3983125,174.6669847
CC48182,Rukuhia School Parent and Teacher Association (PTA),Hamilton,,58 Rukuhia Road,RD 2,3882, ,-37.8536061,175.2997439
CC48826,The Whau River Catchment Trust,Auckland,,36 Rathlin Street, ,0600,Blockhouse Bay,-36.9189204,174.7056295
CC48715,Izard Rodney College Trust,Wellsford,,287 Rodney Street,,0900, ,-36.2878549,174.5207526
CC48686,Geraldine Children Social Work Trust,Geraldine,,5A Peel Street,,7930, ,-44.090923,171.2424773
CC48853,Auckland Basketball Services Limited,Auckland,,"Sport Auckland House, Level 4","Gate B, Alexandra Park Function Centre, Greenlane West",1051,Epsom,-36.8923218,174.7762234
CC48359,Graeme Dingle Foundation Auckland,Auckland,,145 St George Street, ,2025,Papatoetoe,-36.9792089,174.8585238
CC48419,Bream Bay Community Support Trust,Ruakaka,,9 Takutai Place,Ruakaka 0116,0116, ,-35.8750208,174.4572608
CC48369,Mothers Helpers,Nelson,,200 Hardy Street,Nelson 7010,7010,Waiatarua,-41.2745312,173.2843713
CC48551,Holocaust Centre Of New Zealand Incorporated,Wellington,,80 Webb Street, ,6011,Te Aro,-41.2972244,174.7721522
CC48307,ACK WAIKATO CHURCH TRUST,Hamilton,,61 Ascot Road, ,3210,Chartwell,-37.7576103,175.2847728
CC48371,Emmanuels Mission Trust,Feilding,,Pharazyn Road,R D 7,4777, ,-40.1941807,175.6019979
CC48440,Te Mana O Ngati Rangitihi Charitable Trust,Whakatane,,35 Heale Street,RD 4,3194,Matata,-37.8888668,176.7579588
CC49407,Cobham Intermediate Parent Teacher Association Incorporated,Christchurch,,294 Ilam Road, ,8053,Burnside,-43.5107083,172.5845354
CC48373,Ellerslie Community Patrol Charitable Trust,Auckland,,127 Main Highway, ,1051,Ellerslie,-36.898222,174.8097961
CC48458,Kaipatiki Youth Development Trust,Auckland,,15 Chartwell Avenue, ,0629,Glenfield,-36.7839908,174.7325732
CC48606,Ngaio School Parent Teacher Association,Wellington,,Ngaio School,Abbot Street,6035,Ngaio,-41.2491214,174.775761
CC48261,The Methodist Church Of New Zealand Te Haahi Weteriana O Aotearoa Christchurch Central Parish - Parish ,Christchurch,,309 Durham Street North, ,8013,Christchurch Central,-43.5280658,172.6332384
CC48556,Maketu Ongatoro Wetland Society Incorporated,Te Puke,,9 Whenuariri Place,RD 9,3189,Maketu,-37.7603599,176.4632816
CC48718,City Park Community Patrol Incorporated,Christchurch,,Flat 1,144A Riverlaw Terrace,8022,Saint Martins,-43.5537609,172.6541334
CC48664,Kaingahoa Marae Mataraua,Kaikohe,,945 Mataraua Road,Kaikohe 0474,0474,Te Puru,-35.5024286,173.7656531
CC48415,Fatoaga O Keliso,Auckland,,15 Apple Orchard Way, ,0612,Sunnyvale,-36.901237,174.629902
CC48692,Matahuru Papakainga Marae Reservation,Huntly,,58B Harris Street,,3700, ,-37.5604634,175.1516362
CC48653,Rotorua Symphonic Band Incorporated,Rotorua,,12 Garrick Place, ,3015,Pukehangi,-38.1332704,176.201726
CC48842,Figure.NZ Trust,Auckland,,9541/17B Farnham Street, ,1052,Parnell,-36.8512528,174.7820388
CC48322,"Faith and Life Changing Ministries, Timaru Branch",Timaru,,11 Cains Terrace,,7910, ,-44.3964615,171.2550237
CC48595,Resource Recovery Devonport Trust,Auckland,,27 Lake Road, ,0624,Devonport,-36.8211767,174.7960297
CC48661,Waimate Community Garden Incorporated,Waimate,,172 High Street,,7924, ,-44.7285906,171.0422524
CC48656,Porirua Church of Christ,Porirua,,27A Mungavin Avenue,73 Kenepuru Drive,5024,Ranui,-41.1388275,174.8501702
CC48473,Wellington Light of Life Chinese Church,Lower Hutt,,35 George Street, ,5019,Stokes Valley,-41.1661784,174.9823254
CC48579,St Andrews Community Trust,Waiuku,,85 Queen Street,,2123, ,-37.252425,174.7305359
CC48691,The Burn Support Group Charitable Trust,Auckland,,16 Albion Road, ,,Otahuhu,-36.9396906,174.840895
CC48882,Ministry of Inspiration,Nelson,,23 Alma Street,,7010, ,-41.27384079999999,173.2864606
CC49131,Aotearoa Football Charitable Trust,Papakura,,5 Edmund Hillary Avenue,,2110, ,-37.0591621,174.9543076
CC49170,The Earle Manawatu/Rangitikei Creativity and Development Trust,Wellington,,Public Trust Tower,Level 2,6011,22 Willeston Street,-41.2864564,174.7767067
CC48666,Kapiti Coast Museum Incorporated,Waikanae,,9 Elizabeth Street,,5036, ,-40.8779579,175.0670777
CC48387,Twizel-Tekapo Community Vehicle Trust Board,Twizel,,Twizel Heartland Centre,Mt. Cook Street,7901, ,-44.2557497,170.0978533
CC48621,SADD Aotearoa - Students Against Dangerous Driving Charitable Trust,Auckland,,20 Viaduct Harbour Avenue,P O Box 5,1010,Auckland Central,-36.845762,174.7571772
CC48872,RJ & MI Ross No. 2 Charitable Trust,Auckland,,41A Merani Street, ,0622,Narrow Neck,-36.8090048,174.7959678
CC48468,The Wellington Breastfeeding and Parenting Trust,Wellington,,Flat 5,Erskine Mews,6023,Island Bay,-41.3336553,174.7771041
CC48478,Waipawa Primary School Whanau and Friends Association,Waipawa,,6 Harker Street,,4210, ,-39.94307209999999,176.5899706
CC49055,Third Space Trust,Auckland,,37 Oranga Avenue,Phoenix Apartments 135 Grafton Road,1061,Onehunga,-36.9099638,174.7987983
CC48517,Kidz Need Dadz Charitable Trust Bay Of Plenty (Incorporated),Tauranga,,538 Fraser Street, ,3112,Greerton,-37.7275593,176.141943
CC48459,R.E.K.A. Trust,Whakatane,,88A Pahou Pa Rd,Whakatane 3120,3120, ,-37.984218,176.9784882
CC48382,Serbian Orthodox Mission St Nicholas Trust,Christchurch,,15 Highfield Place, ,8042,Avonhead,-43.5180158,172.5616083
CC48460,Devonport RSA Poppy Day Trust,Auckland,,61 Victoria Road, ,624,Devonport,-36.830224,174.7976564
CC48492,Special Olympics Bay Of Islands Trust,Kaikohe,,PO Box 518,,0440, ,-35.4081392,173.7986091
CC48638,Vahefonua Tonga Methodist Mission Charitable Trust,Auckland,,636 Great South Road, ,1051,Ellerslie,-36.8998874,174.8051155
CC48463,Rotary Club Of Whangarei City Charitable Trust,Whangarei,,14 Cliff Street, ,0110,Onerahi,-35.7747254,174.3609732
CC48465,Fountain of Peace Children's Foundation New Zealand,Invercargill,,159 Spey Street,Invercargill 9810,9810, ,-46.4099653,168.352986
CC49350,Fale Pasifika O Aoraki Trust Society Incorporated,Timaru,,39 North Street,,7910, ,-44.4003302,171.250822
CC48462,Pioneer Basketball Club Incorporated,Christchurch,,75 Lyttelton Street,Lyttleton,8024,Somerfield,-43.5660982,172.6140486
CC48483,Methodist Church Samoa (New Zealand) Onehunga Parish,Auckland,,66 Alfred Street, ,1061,Onehunga,-36.92052640000001,174.7939224
CC48530,The Maureen Raison Charitable Trust,Auckland,,C/- Carter Atmore Law Ltd,"Level 3, 57 Symonds St",1010,Grafton,-36.8564989,174.7650976
CC48471,Manawatu Deaf Society Incorporated,Palmerston North,,55B Totara Road, ,4412,Awapuni,-40.38310670000001,175.5818467
CC48851,Seaward Downs Play Group,Wyndham,,348 Kapuka North Road,RD 3,9893,Oteramika,-46.4277068,168.6242754
CC48480,Ranichauri Eastwoodhill Trust,Napier,,77 Austin Street, ,4110,Onekawa,-39.49982079999999,176.8779544
CC48762,THE C G TATE CHARITABLE TRUST,Christchurch ,,c/- McGillivray Callaghan & Co.,P O Box 79123,8446,Avonhead,-43.5103164,172.5564539
CC48479,The Tonar Street Athletics Trust,Auckland,,85 Beach Haven Road, ,0626,Beach Haven,-36.7916004,174.6854663
CC48985,CAPITAL GYMNASTIC CLUB INCORPORATED,Wellington,,11 Hutchison Road,11 Hutchison Road,6021,Newtown,-41.309075,174.77288
CC48477,The Matahui Road School Foundation Trust,Katikati,,267A Wharawhara Road,RD 2,3178,Tahawai,-37.5728679,175.882343
CC49181,Thomas Neale Charitable Trust,Kamo,,42 Winger Crescent,,112, ,-35.6716404,174.3005977
CC48611,WELLINGTON MOUNTAIN BIKE CLUB INCORPORATED,Wellington,,70 Sefton Street, ,6012,Wadestown,-41.2614997,174.779968
CC49711,Whakatane Menz Shed Incorporated,Whakatane,,30 Te Tahi Street,,3120, ,-37.9787272,176.9842537
CC48973,College Rifles Badminton Club Incorporated,Auckland,,33 Haast Street, ,1050,Remuera,-36.8835891,174.8136197
CC48501,Thinking Matters New Zealand Foundation,Papamoa,,42 Piata Street,,3118,,-37.7297978,176.341929
CC48569,Live More Awesome Foundation,Tauranga,,54 Hillcrest Road,,3110, ,-37.6753475,176.1434764
CC48481,Picton Memorial Park Trust Incorporated,Picton,,66 Wellington Street,,7220, ,-41.2914687,174.0080532
CC49050,National Council of Women of New Zealand Incorporated,Wellington,,Level 4,Central House 26 Brandon Street,6011,Wellington Central,-41.2832069,174.7764169
CC48484,The Samoan Congregational Christian Church (Nelson) Trust Board,Nelson,,164 Panorama Drive, ,7011,Enner Glynn,-41.3145027,173.2492207
CC48475,The Fairlie Community Vehicle Trust,Fairlie,,Heartlands Resource Centre,Main Street,7987, ,-44.0977299,170.8288521
CC48869,Pahiatua School Community Association (PSCA),Pahiatua,,21 Albert Street,,4910, ,-40.451946,175.8391893
CC49127,Te Manawanui Trust,Auckland,,67 Staveley Avenue,Mount Roskill,1041,Mount Roskill,-36.9248112,174.7472367
CC48529,The Geraldine Academy of Performance & Arts Incorporated,Geraldine,,79 Talbot Street,,7930, ,-44.0929898,171.2454924
CC48504,New Life Charitable Trust Wellington,Upper Hutt,,152 Main Street, ,5018,Upper Hutt Central,-41.1243565,175.0725397
CC48711,The Heart Research Institute (NZ) Limited,Wellington,,c/- BDO New Zealand,"Level 1, Chartered Accountants House",6143,50 Custom House Quay,-41.2840575,174.7771121
CC48785,Horsham Downs School Parent Teacher Association Incorporated,Hamilton,,4 Martin Lane,RD 1,3281, ,,
CC48499,Adult Conductive Education Trust,Christchurch,,22 Brougham Street,RD 1,8024,Addington,-43.5484722,172.6189364
CC48378,Voice of Christ Full Gospel Church (Otara),Auckland,,5 Hope Place, ,2023,Otara,-36.9527554,174.8715693
CC49859,Jean Wightman Trust,Wellington,,22 Willeston Street, ,6011,Wellington Central,-41.2864564,174.7767067
CC48649,St Joseph's School Education Trust,Karamea,,505 Kongahu Swamp Road,RD 3,7893,Little Wanganui,-41.341408,172.1015792
CC49476,The Voice Of Christ Full Gospel Church Avondale Auckland Trust,Auckland,,97A Sunnyside Road, ,612,Sunnyvale,-36.8994478,174.6393437
CC49211,Friends Of Rotoiti Trust,St Arnaud,,5 Range View Road,St Arnaud 7072,7072, ,-41.8034905,172.8577564
CC48898,Youth Encounter Ministries Trust,Te Puke,,196 Roydon Downs Road,RD 9,3189,Paengaroa,-37.86465,176.4247735
CC48491,Te Roopu Whakaruruhau O Nga Wahine Maori Incorporated,,,,,,,,
CC48521,Arawa Park Community Trust,Rotorua,,274 Fenton St,,3010, ,-38.1489659,176.2540833
CC48585,Samoan Assemblies of God in New Zealand Incorporated - Bible College,Auckland,,38 Robertson Road, ,2024,Favona,-36.9555345,174.804562
CC49178,Lower Shotover Conservation Trust,Dalefield,,90 Fitzpatrick Road,,9371, ,-44.98313659999999,168.7304243
CC48997,The Common Unity Project,Lower Hutt,,P O Box 31026, ,5040, ,-41.2095577,174.901028
CC48736,Kelly Tarlton's Marine Wildlife Trust,Auckland,,23 Tamaki Drive, ,1071,Orakei,-36.8480188,174.8177987
CC49109,The Puhinui Trust,Pukekohe,,723 Harrisville Road,RD 2,2677,Pukekohe East,-37.2021661,174.9492464
CC48633,"The Deeper Christian Life Ministry Trust, New Zealand",Papakura,,7 Vanni Lane, ,2113,Pahurehure,-37.0741816,174.9378184
CC49414,Waipukurau and District Returned Services Association Incorporated Trust Welfare,Waipukurau,,72 Racecourse Road,Waipukurau 4200,4200, ,-40.0018644,176.5452155
CC48494,Brydie Lauder Charitable Trust,Christchurch,,10 The Rise, ,8081,Mount Pleasant,-43.564601,172.7168204
CC48545,Waitaki High Old Boys' Association Incorporated,Oamaru,,Waitaki Boys' High School,Waitaki Avenue,9400, ,-45.0766959,170.9925751
CC48816,Jesus Love Presbyterian Church,Helensville,,165 Parkhurst Road, ,0830,Parakai,-36.6598649,174.4316471
CC48731,TE WHARE TU TAUA KI WAITAHA CHARITABLE TRUST,Little River,,7 Clifton Street,,7591, ,-43.8221232,172.7063288
CC48786,Greening the Rubble Trust,Christchurch,,77 Marine Parade,,8083,North New Brighton,-43.49378530000001,172.7257874
CC48676,HB Cricket Charitable Trust,Napier,,Macinnes Pavilion, ,4140,Nelson Park Jull St,-39.4983803,176.910171
CC48513,Manaaki Ora Trust,Rotorua,,PO Box 1802,,3040, ,-38.1366362,176.2518184
CC48741,Northern Wairoa Cricket Club Incorporated,Dargaville,,24 Victoria Street,Dargaville 0310,0310, ,-35.9432402,173.8683982
CC48506,Central Kids Trust,Putaruru,,6 Glenshea Street,,3411, ,-38.0530452,175.7782484
CC49403,Charisma Christian Ministries Trust,Auckland,,14 Spode Place, ,0612,Henderson,-36.8939716,174.6213194
CC48889,The Mount Albert Grammar School Community Swimming Pool Trust Board,Auckland,,1234 Great North Road, ,1022,Point Chevalier,-36.8708956,174.710177
CC48781,Weedons Cricket Club,Christchurch,,Weedons Domain,Maddisons Rd,,Weedons,-43.556222,172.4286601
CC48801,The Prue Blythe Memorial Trust,Cambridge,,10 Webber Street,,3434, ,-37.8713968,175.466762
CC50083,Iqra Academy,Auckland,,9 Budgen Street, ,1041,Mount Roskill,-36.9234717,174.7325029
CC48738,The Drawing of Heaven Church,Auckland,,26 West Harbour Drive, ,0618,West Harbour,-36.8235811,174.6282291
CC48554,Te Waipounamu Maori Cultural Council Incorporated,Richmond,,4 Otia Drive,,7020, ,-41.3431996,173.1730632
CC49971,Coptic Orthodox Church New Zealand Parish of St Mary and St Anthanasious Christchurch,Christchurch,,290 Wooldridge Road,Avonhead,8051,Harewood,-43.4839217,172.5681821
CC48601,The Memorial Oaks Committee,Oamaru,,250 McKerrow Road, ,9495,Rd110,-45.0965979,170.9714456
CC48512,New Plymouth Stroke Support Trust,New Plymouth,,Unit 99,95 Barrett Road,4310,Whalers Gate,-39.0852401,174.0361953
CC48928,The Filipino Chaplaincy Pastoral Council Wellington Archdiocese,Wellington,,169 Main Road, ,5028,Tawa,-41.1712358,174.8245499
CC48740,Volunteering Northland,Whangarei,,Level 1,Civic Arcade,110,37-41 Bank Street,-35.7251365,174.3191966
CC48704,C3 New Zealand Pacific Trust,Auckland,,Suite 1,27 Aviemore Drive,2010,Highland Park,-36.9018458,174.9048066
CC48651,Eden Christian Academy,Tuakau,,131 Dominion Road,Tuakau 2121,2121, ,-37.2530496,174.9619085
CC49253,Tuia Charitable Trust,Waipu,,11 South Road,,0510, ,-35.9860238,174.4483303
CC50388,Movement,Kumeu,,355 Foster Road,RD 1,0891,Waimauku,-36.7861802,174.4900358
CC48493,Moewhare Marae,Levin,,296 State Highway 1,RD 12,5572, ,-40.58708379999999,175.2941373
CC48881,Samoan Methodist Churches of Samoa (Otara Parish) in New Zealand,Auckland,,2 Blair Place, ,2023,Otara,-36.958198,174.8738199
CC48953,Empower Church Charitable Trust,Te Puke,,117 Bell Road,RD 7,3187,Papamoa,-37.7328493,176.3116106
CC49588,The New Zealand Cuban Festival Trust,Tauranga,,40 Anzac Road, ,3112,Gate Pa,-37.712144,176.1421894
CC48510,Wanaka Concert Society Incorporated,Wanaka,,3 Sunrise Bay Drive,Wanaka 9305,9305,Wānaka,-44.6950019,169.1106478
CC49113,Akarana Marine Sports Charitable Trust,Auckland,,The Landing,8 - 10 Tamaki Drive,1071,Okahu Bay,-36.8499907,174.8103012
CC48749,Mahanaim Trust,Matamata,,11 Elizabeth Street,,3400, ,-37.8114006,175.7694923
CC48733,Methodist Church Samoa New Zealand Botany Parish,Papakura,,634 Papakura-Clevedon Road,RD 2,2582,Ardmore,-37.035907,174.9978218
CC49185,Heilala Vanilla Foundation,Tauranga,,37A Newnham Road,RD 4,3174,Whakamarama,-37.67368039999999,176.056477
CC49071,Hutt Art Society Incorporated,Lower Hutt,,9 Myrtle Street, ,5010,Hutt Central,-41.2138722,174.9041335
CC49788,Omaui Tracks Trust Incorporated,Invercargill,,C/- LLOYD ESLER  15 Mahuri Road,RD 9,9879, ,-46.4291676,168.3024842
CC48974,St Peters College Hostel Charitable Trust,Gore,,129 Kakapo Street,,9710,,-46.1078202,168.9239671
CC48643,Futurecaster Trust,Auckland,,Flat 31,11 The Avenue,0632,Albany,-36.7238411,174.6907959
CC48784,Maori Association of Social Science Inc,Wellington,,Victoria University of Wellington,50 Kelburn Parade,6012,Kelburn,-41.288977,174.7674879
CC48608,Ruakohatu Charitable Trust,Waikanae,,426 Te Moana Road,,5036, ,-40.8804789,175.0554969
CC48819,Te Poho o Hinemihi Marae,Wairoa,,316 Ruataniwha Road,Wairoa 4108,4108, ,-39.029983,177.3761832
CC48531,InsideOUT Kōaro,Wellington,,"Level 3, Anvil House",138 Wakefield Street,6011,Te Aro,-41.2903521,174.7778385
CC49293,Paikea Whitireia Trust Maori Reservation ,Gisborne,,80 Pa Road,RD 3,4073,Whangara,-38.5599182,178.2170952
CC49201,Rangimarie Maori Arts & Crafts Society Incorporated,New Plymouth,,87 Cook Street, ,4310,Marfell,-39.07278660000001,174.0461026
CC49019,De Paul House Charitable Trust,Auckland,,92 Onewa Road, ,627,Northcote Point,-36.810883,174.7389869
CC48567,Spiritual Assembly of The Baha'is of Waitaki District,Auckland,,31 Kingdon Street, ,1149,Newmarket,-36.8656005,174.7766686
CC48516,Wish for a Smile charitable trust,Wellington,,20 Tennyson Street, ,6011,Te Aro,-41.29512,174.7819457
CC48565,Spiritual Assembly of The Baha'is of Tasman District,Auckland,,c/- 31 Kingdon Street, ,1149,Newmarket,-36.8656005,174.7766686
CC48514,Cheng Heng Temple Charitable Trust,Auckland,,5 Korcula Place, ,1026,Avondale,-36.89546470000001,174.6795665
CC48607,The Otago Law Practitioner's Benevolent Fund,Dunedin,,265 Princes Street, ,9016,Dunedin Central,-45.8780391,170.5017593
CC49116,Waipu Alumni Of District Education Trust WADE Trust,Waipu,,6 Argyle Street,,510, ,-35.9870676,174.4433008
CC49043,Maori Community Leaders Forum,Christchurch,,250 Pages Road, ,8062,Wainoni,-43.5207076,172.6985187
CC48992,Amberley Christian Church Trust,Amberley,,27 MacKenzies Road,RD 3,7483,Waipara,-43.0528063,172.7576466
CC48883,Music Innovation Trust Of Taranaki ,New Plymouth,,37 Vivian Street,New Plymouth 4310,4310, ,-39.060598,174.0724154
CC48921,Lloyd's Register International,Auckland,,70 St Johns Road, ,1072,Saint Johns,-36.8735043,174.8287243
CC50753,JMJ Christian Trust Board,WHANGAPARAOA,,1189 Whangaparaoa Road , ,0930,Gulf Harbour,-36.6089696,174.7835883
CC48868,Rawiri Residents Association Incorporated,Auckland,,1 Rata Vine Drive, ,2104,Wiri,-37.0040724,174.8898615
CC48562,Rites of Passage Foundation,Takaka,,156 Commercial Street,,7110, ,-40.8518616,172.8075996
CC48543,Taupo Primary School PTA,Taupo,,Tamamutu Street,,, ,-38.6877558,176.0801173
CC48377,New Zealand Fallen Heroes' Trust,Christchurch,,18A Oakley Crescent, ,8042,Hornby,-43.5549104,172.5365855
CC50091,Howick-Pakuranga Hockey Club Incorporated,Auckland,,Lloyd Elsmore Hockey Stadium,Lady Marie Dr,,Pakuranga,-36.9095797,174.9012227
CC49138,Te Puke Repertory Society Incorporated,Te Puke,,Litt Park,Park Lane,3071, ,-37.7933924,176.3163254
CC48865,Tennis Pakuranga Supporters' Charitable Trust,Auckland,,101 Pigeon Mountain Road, ,2012,Half Moon Bay,-36.8914358,174.9006545
CC49600,Howick Pakuranga Netball Centre Incorporated,Auckland,,2r Bells Road, ,2010,Pakuranga Heights,-36.9068484,174.9029128
CC48552,Taranaki Synthetic Turf Trust,Taranaki,,C/- CMK,87 Regan Street,4332,Stratford,-39.3384585,174.2826008
CC49069,Tapanui Primary School PTA,Tapanui,,14 Sussex Street,,9522, ,-45.9417404,169.259246
CC48548,ACK Tauranga Congregation Trust,Tauranga,,134 Sixteenth Avenue, ,3112,Tauranga South,-37.705834,176.1531984
CC48470,FATUGATITI PRESCHOOL INCORPORATED,Auckland,,Fatugatiti Preschool Inc.,82 Wyllie Road,,Papatoetoe,-36.9860801,174.8501281
CC48542,Come Bless The Lord Samoan Assembly of God,Auckland,,4C Chalfont Street, ,2024,Mangere East,-36.9656109,174.8190871
CC49031,Family Help Trust Foundation,Christchurch,,Unit 5,31 Carlyle Street,8023,Sydenham,-43.541268,172.6405722
CC48821,Pakuranga Outrigger Canoe Club Te Tahawai O Pakuranga Incorporated,Auckland,,45 Caspar Road, ,2025,Papatoetoe,-36.9769651,174.8789123
CC48724,Nga Rangatahi Toa Creative Arts Initiative,Auckland,,PO Box 56001,Dominion Road,1446,Mount Eden,-36.8935487,174.7453291
CC48850,Koraunui Marae Charitable Trust,Lower Hutt,,146 Stokes Valley Road, ,5019,Stokes Valley,-41.1705113,174.9812539
CC49278,Craigieburn Valley Ski Club Incorporated,Christchurch,,State Highway 73,Cass,, ,-43.5128351,172.4752704
CC48476,Auckland Evangelical Church Trust,Auckland,,80 Olsen Avenue,2 Gordon Road,1042,Hillsborough,-36.9168743,174.7527988
CC48584,The Vine House Trust Board,Auckland,,130 Point England Road, ,1072,Point England,-36.882542,174.86681
CC49712,Te Karanga Charitable Trust,Auckland,,Flat 2,20 Nottingham Street,1022,Westmere,-36.8552555,174.722291
CC50508,Alexandra Primary School Charitable Trust,Alexandra,,151 Conroys Road ,Rd1,9391, ,-45.2601435,169.3406409
CC49056,Otahuhu & Districts Highland Pipe Band Incorporated,Auckland,,25A Fort Richard Road, ,1062,Otahuhu,-36.9476933,174.8421312
CC48553,Beckenham School PTA,Christchurch,,71 Sandwich Road, ,8023,Beckenham,-43.5630233,172.6462877
CC48719,Lake Taupo Hospice Development Trust Board ,Taupo,,29 Huka Falls Road, ,3330,Rangatira Park,-38.67203800000001,176.0755377
CC49366,Manurewa Neighbourhood Support Incorporated,Auckland,,50 Walpole Avenue, ,2102,Hillpark,-37.0141011,174.9001501
CC49314,Ngati Pahauwera Manaaki Trust,Wairoa,,74 Queen Street,Wairoa 4108,4108, ,-39.0346145,177.4213347
CC48645,Winton Skate Park Trust,Winton,,224 Great North Road,,9720, ,-46.1435773,168.3253238
CC48799,Deaf Sports New Zealand Incorporated,Auckland,,110B Hillside Road,,2025,Papatoetoe,-36.9873137,174.8434451
CC48940,Living Well Mataura Charitable Trust,Mataura,,16 Bridge Street,Mataura 9712,9712,Mataura,-46.1944496,168.8665337
CC49034,Tutaki Youth Incorporated Trust,Stratford,,88 Juliet Street,,4332, ,-39.3388041,174.2860398
CC48599,Dry July NZ Trust,Lower Hutt,,42 Kerkwall Drive, ,5011,Naenae,-41.2120419,174.9575274
CC48589,The Joyce Shanley Trust ,Wellington,,Public Trust Tower,Level 2,6011,22 Willeston Street,-41.2864564,174.7767067
CC48764,ISANA New Zealand Charitable Trust,Palmerston North,,1 Maxwells Line, ,4412,Awapuni,-40.3712896,175.5787943
CC48763,The Good Works Charitable Trust,Auckland,,252 Forrest Hill Road, ,0620,Forrest Hill,-36.7584224,174.7500797
CC48568,Ruatoria Volunteer Fire Brigade,Ruatoria,,190 Waiomatatini Road,Ruatoria 4032,4032, ,-37.8878967,178.3193968
CC48702,Akaroa Men's Shed Trust,Duvauchelle,,PO Box 165,,7545, ,-43.75031999999999,172.932371
CC48588,Selwyn Parenting Network Incorporated,Christchurch,,159 Trents Road,RD 6,7676,Prebbleton,-43.5667881,172.4828502
CC48975,Benefit Education Advisory Service Incorporated,Wellington,,Anvil House,"Level 6, 138-140 Wakefield St",6021,Te Aro,-41.2903521,174.7778385
CC48757,Waitaki Community Patrol ,Oamaru,,16 Severn Street,Oamaru 9400,9400, ,-45.0980613,170.9686174
CC48848,Sumner Cricket Club Incorporated,Christchurch,,35 Campbell Street, ,8081,Sumner,-43.5787178,172.7616178
CC49704,Assist NZ Incorporated,Auckland,,38A Alford Street, ,1026,Waterview,-36.8780592,174.698691
CC48837,Synergy Community Trust,Auckland,,44 Portage Road, ,600,New Lynn,-36.9128443,174.6902557
CC48596,Autism Eden Trust,Auckland,,28 Lynbrooke Avenue,1 Clonbern Road,0600,Blockhouse Bay,-36.92431810000001,174.7127786
CC48610,Auckland Pipe Band College Trust Incorporated,Auckland,,39 Kopiko Road, ,604,Titirangi,-36.9353937,174.650099
CC49352,Japan Kauri Education Trust,Auckland,,5 William Pickering Drive, ,0632,Rosedale,-36.7519364,174.7048152
CC48609,Student Christian Movement Aotearoa Inc,Auckland,,98 St Heliers Bay Road, ,1071,St Heliers,-36.8546006,174.8603814
CC48574,Garden City Orchestra Incorporated,Kaiapoi,,16 Camleigh Close,,7630, ,-43.3758272,172.6513806
CC49284,BrooklynsLove Foundation,Wanganui,,62 Bignell Street, ,4501,Gonville,-39.9461239,175.0212521
CC48812,St Marys Home & School Association Incorporated,Hastings,,St Mary's School,901 Frederick Street,4120,Mahora,-39.6239427,176.847571
CC48697,The Hato Paora Trust Board,Feilding,,1314 Kimbolton Road,RD 7,4777, ,-40.151965,175.6565593
CC49012,Canterbury Community Gardens Association Incorporated,Christchurch,,180 Smith Street,,8062,Woolston,-43.5378538,172.6775156
CC49394,New Zealand Chinese Culture & Performing Arts Charitable Trust,Auckland,,Flat 3,170 Blockhouse Bay Road,0600,Avondale,-36.8979904,174.7018752
CC48845,David John And Maria Sher Charitable Trust Foundation ,Mount Maunganui,,Flat 2,41 Marine Parade,3116, ,-37.6362724,176.1863035
CC49769,ALLIANCE FRANCAISE DE HAMILTON INCORPORATED,Hamilton,,Suite 4,"Reid House, 114 Alexandra St",3204,Hamilton Central,-37.7884344,175.2823138
CC48890,Church by the Tracks Trust,Christchurch,,29 Alpha Avenue, ,8052,Strowan,-43.50846990000001,172.6067924
CC48913,THE FRONTIERS NEW ZEALAND TRUST  2012,Feilding,,4 Landon Way,Feilding 4702,4702, ,-40.2067719,175.5855125
CC48648,North Wellington SeniorNet Incorporated,Wellington,,Care Johnsonville Community Centre,3 Frankmore Ave,6037, Johnsonville,-41.2223053,174.8053436
CC49486,Auckland Islamic Trust (AIT),Auckland,,18 Farrelly Avenue, ,1041,Mount Roskill,-36.9025588,174.7273338
CC49344,NZ Mountain Film Festival Charitable Trust,Wanaka,,17 Drake Place,RD 2,9382,Lake Hawea,-44.6114684,169.2798521
CC48893,The Percy Vos Charitable Trust,Auckland,,29 Mount St John Avenue, ,1051,Epsom,-36.8818919,174.7800769
CC49093,Kirikiriroa Marae Reservation Charitable Trust,Hamilton,,951 Wairere Drive, ,3216,Hamilton East,-37.7931075,175.3069014
CC48679,Marist Alternative Education Limited,Auckland,,Unit 1,381 Great South Road,1051,Ellerslie,-36.8985788,174.8030724
CC48547,Bible League International New Zealand ,Auckland,,Unit 12,65 Paul Matthews Road,0632,Rosedale,-36.7512756,174.7139544
CC48772,Waihi School Trust Board,Temuka,,611 Temuka-Orari Highway,RD 26,7986,Winchester,-44.1955316,171.277252
CC48986,The House Of Breakthrough Trust Oamaru ,Oamaru,,33 Wansbeck Street,Severn Street,9400,South Hill,-45.10398499999999,170.9643809
CC49524,Uiraroa Marae,Whakatane,,C/- 237 Powell Road,R.D.3,3193, ,-38.013404,176.7829711
CC50828,Elite Sports and Events Organisation,Upper Hutt,,11a Tawai St,Trentham,0518, ,-41.1357778,175.0380127
CC48766,Wellington Homeless Women's Trust,Wellington,,107 Manners Street, ,6011,Te Aro,-41.2914935,174.7775785
CC49101,Estate E E Flanagan,Nelson,,78 Selwyn Place,,7010, ,-41.2754597,173.2854757
CC49667,Immanuel Community Church,Auckland,,28 Arthur Road, ,2102,Hillpark,-37.0185423,174.9055301
CC48806,Dunedin Full Gospel Church,Dunedin,,2 Preatwick Street, ,9010,Maori Hill,-45.8566696,170.4982767
CC49130,Focus Paihia Community Charitable Trust,Paihia,,C/O PKF POUTSMA LEMON LTD,1 Williams Road,200, ,-35.2817317,174.0913756
CC49073,Hope Rising Farm Trust,Ngaruawahia,,122A Te Puroa Road,RD 1,3793, ,-37.6906494,175.133378
CC49808,Clutha Country Music Club Incorporated,Balclutha,,145 Glenfalloch Road,RD 3,9273,Lochindorb,-46.2773208,169.5680471
CC48780,Te Papapa Early Childhood Education Trust,Auckland,,219 Mount Smart Road,219 Mount Smart Road,1061,Onehunga,-36.9153289,174.799547
CC49018,Far North Radio and Sea Rescue Incorporated,Cable Bay,,409B Cable Bay Block Road,,0420, ,-35.0088053,173.5037796
CC48751,Aileen Drewitt Charitable Trust,Auckland,,C/O Perpetual Guardian,"Level 8, 191 Queen Street",1010,Auckland Central,-36.8485007,174.7651644
CC48682,The Huxster Mountain Bike Trust,Christchurch,,99 Nayland Street, ,8081,Sumner,-43.5723165,172.7642605
CC48723,NZ Korean Youth Community Trust ,Auckland,,28A Chalmers Street, ,600,Avondale,-36.901,174.6988044
CC48831,THE EDEN LIFE TRUST,Auckland,,14 Winscombe Street, ,622,Belmont,-36.8034641,174.7927868
CC48699,Continuing Education (Hamilton) Trust,Hamilton,,205 Pukete Road, ,3200,Pukete,-37.7373398,175.2373738
CC50247,Torere Reserves Trust,Opotiki,,2220 State Highway 35, ,3197,Torere,-37.9594041,177.4701367
CC48844,Waimumu Te Tipua Art & Craft Exhibition Incorporated,Gore,,corner Glendhu and Waimumu Road,RD 4,9774,Waimumu,-46.11820729999999,168.8960089
CC49254,Waimate District Charitable Foundation,Waimate,,C/- Community Link House,5 Glasgow Street,7924, ,-44.7342117,171.0455453
CC48709,Solicitors' Benevolent Fund,Wellington,,17 Whitmore Street," High Court Building, Kate Sheppard entrance",6011,Wellington Central,-41.2809682,174.7779137
CC48849,Lifezone Church Property Trust,Tauranga,,7 Oak Lane, ,3110,Judea,-37.6967927,176.1493221
CC49180,Trinity Broadcasting Network NZ Charitable Trust,Christchurch,,13 Meeking Place, ,8025,Halswell,-43.5698355,172.5712018
CC50008,Auckland Malayali Samajam Incorporated,Auckland,,PO Box 24526, ,1345,Royal Oak,-36.9106233,174.7695643
CC50212,Support for Development (SFD),Christchurch,,124 Avonhead Road, ,8042,Avonhead,-43.520139,172.562773
CC48776,Hawke's Bay (CEC) Trust,Hastings,,1017 Heretaunga Street East, ,4122,Parkvale,-39.6520692,176.8543634
CC48729,Revive Youth Trust,Auckland,,1A Beulah Avenue, ,0630,Rothesay Bay,-36.7234167,174.7506517
CC49198,Good Neighbour Aotearoa Trust,Tauranga,,39B Burrows Street, ,3112,Tauranga South,-37.7090755,176.1645266
CC48681,Te Whare Putea Charitable Trust,Kaikoura,,105 Beach Road,,7300, ,-42.3899211,173.6789348
CC48652,Eden Christian Academy (Franklin) Limited,Tuakau,,131 Dominion Road,,2121, ,-37.2530496,174.9619085
CC48918,Wellington Young Voices Incorporated,Wellington,,112A Weld Street, ,6012,Wadestown,-41.2653693,174.7713986
CC49287,Waiotapu Forest School Camp Trust,Rotorua,,Waikokomuku Road,"Waiotapu Forest, SH 5",3078, ,-38.358256,176.3689844
CC49722,Waikato Khmer Association Incorporated,Hamilton,,3285 Ohaupo Road,RD 2,3282, ,-37.8514781,175.3062939
CC48768,Stroma New Music Trust,Wellington,,13 Waitoa Road, ,6021,Hataitai,-41.3048426,174.7959606
CC49053,Hamilton Woodturners Incorporated,Hamilton,,486 Whatawhata Road,RD 5,3285,Temple View,-37.794068,175.2272106
CC48900,New Hope New Zealand ,Dunedin,,44 Connell Street, ,9013,Waverley,-45.8820703,170.5438499
CC48880,Rangatira Marae,Te Karaka,,66 Rangatira Road,Te Karaka 4022,4022, ,-38.46878450000001,177.8570484
CC48840,Field Trial Charitable Trust,Ashburton,,C/- Eastfield Health,135 Tancred Street,7700, ,-43.9062316,171.7481209
CC48770,Waikato Community School of Music Trust Board,Hamilton,,University of Waikato, ,3240,Hillcrest,-37.7819808,175.275023
CC48958,New Zealand Institute of Advanced Legal Studies,Koputaroa,,111 Wallace Loop Road,Koputaroa 5571,5571,Kelburn,-40.6046252,175.3559847
CC48876,Te Awamutu Community Menz Shed Incorporated,Te Awamutu,,132 Raeburne Street,,3800, ,-38.0048106,175.3054484
CC48769,Iglesia De Cristo Trust,Christchurch,,19A Alexandra Street, ,8013,Richmond,-43.5221566,172.6521549
CC48915,Matakohe Limestone Island Endowment Trust,Whangarei,,191 Beach Rd, ,,Onerahi,-35.7649896,174.3657364
CC49059,Safeguarding Children Initiative,Nelson,,142 Saxton Road East, ,7011,Stoke,-41.3290379,173.2204122
CC49006,Nga Iwi o Mokai Patea Services Trust,Taihape,,130 Hautapu Street,,4720, ,-39.6753851,175.7991153
CC49110,Nota Bene Incorporated,Wellington,,63 Pembroke Road, ,6012,Northland,-41.2764067,174.7591781
CC49067,"Mar Dionysius Indian Orthodox Church, Wellington, New Zealand",Porirua,,41 Endeavour Drive,,5024,Whitby,-41.1146794,174.908977
CC49843,Taupo Bike Park Incorporated,Taupo,,Unit 3,127 Tauhara Road,3330,Tauhara,-38.6816014,176.0946168
CC48959,Feed The Need Trust,Auckland,,108 Paremoremo Road, ,0632,Lucas Heights,-36.7364496,174.6731242
CC48761,Youth Activities Centre Kaitaia,Kaitaia,,6 Redan Road,Kaitaia 0410,0410, ,-35.1171032,173.2652768
CC49474,Leataata O Le Lumanai Samoa Trust,Auckland,,10 Novar Place, ,1025,Point Chevalier,-36.8711035,174.7140583
CC48790,Shoreline Church Trust,Tauranga,,321 Fraser Street, ,3112,Parkvale,-37.7158611,176.149061
CC49252,Whangawehi Catchment Management Group Incorporated,Hawkes Bay,,720 East Coast Road,RD 8 Wairoa,4198, ,-39.0351747,177.4181452
CC49080,Feilding Saturday Morning Netball,Feilding,,77 Pharazyn Street,,4702, ,-40.2105028,175.5850209
CC48792,Jardin Musical Trust,Christchurch,,40 St Andrews Hill Road, ,8081,Mount Pleasant,-43.557769,172.7146813
CC48807,New Zealand Olympiad In Informatics Incorporated,Christchurch,,Villa 238,Summerset On Cavendish,8051,Casebrook,-43.4736668,172.6062811
CC48965,Nga Tirairaka o Ngati Hine,Whangarei,,2 Second Avenue,C/- Bowls Whangarei,0110,Avenues,-35.7249201,174.3123579
CC48824,St Mary's Convent Chapel Charitable Trust,Hamilton,,47 Clyde Street,51 Grey Street,3216,Hamilton East,-37.790928,175.2945838
CC49212,Auckland Japanese Christian Church Trust,Auckland,,3 Ngaire Avenue, ,1051,Epsom,-36.8776443,174.7790006
CC48789,Dunedin Community Learning Centre Charitable Trust,Dunedin,,433 Princes Street, ,9016,Dunedin Central,-45.8806209,170.5002505
CC50357,Rongomai Sports and Community Trust,Auckland,,238 Te Irirangi Drive, ,2019,Flat Bush,-36.9706364,174.8993135
CC50031,Cater Plus Foundation,Hamilton,,154 Galloway Street, ,3216,Hamilton East,-37.7902509,175.300471
CC48885,United Church Of Tonga In New Zealand Trust Board,Auckland,,53 Chislehurst Street, ,612,Henderson,-36.9021845,174.623866
CC48948,Beneficiaries Advice Mount Albert Trust Board,Auckland,,704 New North Road, ,1022,Mount Albert,-36.8779613,174.7292359
CC49807,SOUTH INVERCARGILL URBAN REJUVENATION CHARITABLE TRUST ,Invercargill,,262 Ness Street,South City Mall,9812,Appleby,-46.4269224,168.3508648
CC48862,Connected Neighbourhoods Trust,Auckland,,214 Buckley Avenue, ,0616,Hobsonville,-36.7878477,174.6663684
CC48942,Te Wana Trust,Wellington,,39 The Terrace, ,6011,Wellington Central,-41.2799785,174.7755701
CC48968,ESNZ Eventing Canterbury Incorporated,Darfield,,982 Essendon Road,RD 1,7571, ,-43.5149146,172.1603526
CC49172,Otaki Players Society Incorporated,Otaki,,268 Mill Road,,5512, ,-40.7592433,175.1562917
CC48998,The Caritas Pro Vitae Gradu Charitable Trust,Auckland,,ACE International Trust (NZ) Limited,QB Studios/208 Ponsonby Road,1101, ,-36.8534065,174.7449487
CC48870,Tamatea Volunteer Rural Fire & Rescue Squad Incorporated,Waipukurau,,18 Lindsay Road,Waipukurau 4283,4283, ,-39.9867608,176.5567914
CC48875,Opiki Home And School Association,Palmerston North,,RD 4, ,4474,Opiki,-40.5129277,175.4523728
CC49007,Room to Read (New Zealand) Charitable Trust,Wellington,,89 The Terrace, ,6011,Wellington Central,-41.281702,174.7754685
CC49097,The Kennedys Ltd,Auckland,,8 Alfred Street, ,1010,Auckland Central,-36.8521283,174.7684468
CC48886,Te Rito Rodney Family Violence Prevention Project,Orewa,,20 Florence Avenue,Orewa 0931,0931, ,-36.585709,174.6922219
CC49008,The Enrich and Development Trust,Dunedin,,62 Springhill Road, ,9011,Mornington,-45.8862203,170.4765335
CC48713,Adele Goodfellow Charitable Trust,Auckland,,41A Merani Street, ,0622,Narrow Neck,-36.8090048,174.7959678
CC50271,Maramarua Golf Club (Incorporated),Mangatawhiri,,40 Golf Road,,2471, ,-37.2368738,175.1654346
CC48859,Huntley Charitable Trust,Wellington,,Public Trust Tower,Level 2,6011,22 Willeston Street,-41.2864564,174.7767067
CC48996,Taranaki Land Search and Rescue Incorporated,New Plymouth,,360 Henwood Road,RD 2,4372,Hillsborough,-39.0655084,174.149161
CC49195,Omakere School and Community Association (OSCA),Waipawa,,46 Long Range Road,RD 1,4271,Omakere,-40.0511916,176.7538099
CC49176,Auckland Citizens Advice Bureaux Incorporated,Helensville,,16 Commercial Road,,0800, ,-36.67912280000001,174.4495502
CC48896,Waimate Agricultural Trust,Waimate,,52 Queen Street,,7924, ,-44.7324087,171.0481132
CC48943,The Visual Impairment Charitable Trust Aotearoa (NZ) - VICTA (NZ),Dunedin,,301 Moray Place, ,9016,Dunedin Central,-45.8731578,170.5055366
CC48877,Hawkes Bay Youth Futures Trust,Hastings,,207 Lyndon Road East,,4122, ,-39.645284,176.8425438
CC50454,Heritage Taranaki Incorporated,Waitara,,5 Harris Street,,4320, ,-38.9945267,174.2419359
CC48894,Grace Baptist Church of Wanganui,Whanganui,,1 Bignell Street, ,4501,Gonville,-39.9472774,175.0289285
CC48938,Manawatu (CEC) Trust,Palmerston North,,PO Box 5519,Terrace End,4441,Roslyn,-40.3514708,175.6311211
CC48949,Otiwhiti Station Land Based Training Limited,Wanganui,,191 St Hill Street,,4500, ,-39.9318312,175.0471302
CC49161,Signals Pipes and Drums Incorporated,Auckland,,79 St Leonards Road, ,1024,Mount Eden,-36.8973088,174.7636209
CC49792,North Shore Branch of the NZ Society of Genealogists,Auckland,,2 Tamahere Drive, ,0629,Glenfield,-36.788804,174.711354
CC48752,Whai Maia Charitable Trust 1,Auckland,,230 Kupe Street,34 Mahuhu Crescent,1071,Orakei,-36.8506947,174.8230707
CC48753,Whai Maia Charitable Trust 2,Auckland,,230 Kupe Street, ,1071,Orakei,-36.8506947,174.8230707
CC49061,Manurewa Bread of Life (AOG),Auckland,,30 Secretariat Place, ,2105,Randwick Park,-37.0223124,174.91265
CC49060,Bryndwr Community Garden Incorporated,Christchurch,,Morley Park, ,8053,Bryndwr,-43.5067798,172.5857751
CC50559,Heaven on Earth Church of the Nazarene,Auckland,,6 Gospel Heights, ,2019,Flat Bush,-36.9855178,174.9076489
CC49340,Resonance Ensemble NZ Trust,Christchurch,,127A Fendalton Road, ,8014,Fendalton,-43.5199076,172.5984268
CC49163,Robert Algie Memorial Sports Trust,Carterton,,6 Wakelin Street,,5713, ,-41.0280569,175.5261484
CC49346,Mizpah Trust,Auckland,,8 Bond Crescent, ,620,Forrest Hill,-36.7719593,174.7490559
CC49188,'NAAD' CHARITABLE TRUST (NZ),Auckland,,Unit 3,39 East Tamaki Road,2025,Papatoetoe,-36.96816949999999,174.8614335
CC49425,JSM Help,Wakefield,,170 Wangapeka West Bank Road,RD 2,7096, ,-41.3417523,172.7621426
CC50192,Social Sector Innovation WBOP Charitable Trust,Tauranga,,145 Seventeenth Avenue, ,3112,Tauranga South,-37.7056183,176.150941
CC48902,Estate of Derrick James Osborne,Wellington,,Public Trust Tower,22 Willeston Street,6011,Wellington Central,-41.2864564,174.7767067
CC48935,The John Dixon Elliott and Dorothy Hoole Elliott Charitable Trust,Wellington,,"Level 2, 22 Willeston St",Public Trust Tower,6011, ,-41.2864564,174.7767067
CC49117,Wellington Korean Church Trust Board,Wellington,,75 Victory Avenue, ,6012,Karori,-41.2845444,174.7295297
CC49432,Ngati Wakaiti / Ngati Ruahine Charitable Trust,Tauranga,,11A Surrey Grove, ,3112,Parkvale,-37.7197804,176.1469543
CC49266,Ellesmere Community Vehicle Trust Board,Leeston,,165 Leeston Dunsandel Road,RD 2,7682, ,-43.7573371,172.2750059
CC48939,Eastern Bay of Plenty (CEC) Trust,Whakatane,,42A Henderson Street,,3120, ,-37.9594296,176.9669728
CC49065,Dunedin Curtain Bank Trust,Dunedin,,174 Princes Street, ,9016,Dunedin Central,-45.8768244,170.5019089
CC48937,Zimbabwe Rural Schools Library Trust,Upper Hutt,,8 Climie Way, ,5018,Trentham,-41.1306128,175.0367404
CC48916,Christchurch Transitional Architecture Trust,Christchurch,,4 Ash Street, ,8011,Christchurch Central,-43.5348415,172.6418298
CC49151,Takitimu Marae Waituhi,Gisborne,,573 Lavenham Road,RD 2,4072, ,-38.5784478,177.9038945
CC48841,Papawai Pa Trust,Papawai,,18 Pā Road,,5794, ,-41.0967177,175.4857495
CC48904,Across Ministries,Auckland,,32 Lenore Road, ,2024,Favona,-36.9538646,174.8125204
CC49550,New Zealand Retreat (Auckland) Limited,Auckland,,158 Avenue Road East, ,1062,Otahuhu,-36.9402455,174.8564326
CC48954,Teapot Summer School Trust,Waikanae,,2 Kereru Street,,5036, ,-40.8762398,175.0751341
CC48934,Southland (CEC) Trust,Edendale,,76 Turner Street,,9825, ,-46.3172106,168.7896418
CC50060,Lions Club of Waiareka Valley Charitable Trust,Weston,,c/o Postal Delivery CT.,,9401, ,41.2009294,-73.3806748
CC49219,Invercargill Thai Buddhist Charitable Trust,Invercargill,,839 North Road,RD 6,9876,Lorneville,-46.3481445,168.3480862
CC49164,New Zealand Youth Global Awareness Trust Board,Wellington,,Level 13,Davis Langdon House 49 Boulcott Street,6011,Wellington Central,-41.2874178,174.7740795
CC48909,Otago (CEC) Trust,Oamaru,,21 Round Hill Road,RD 19D,9492,Reidston,-45.1485129,170.8471484
CC49666,CSC Buying Group Limited,Cambridge,,1902 Cambridge Road,,3434, ,-37.8900544,175.452766
CC49275,New Zealand Korean School Trust,Wellington,,71 Saddleback Grove, ,6012,Karori,-41.2944891,174.7251797
CC48912,The Lake Memorial Charitable Trust,Auckland ,,C/O Perpetual Guardian,"Level 8, 191 Queen Street",1010, Auckland CBD,-36.8485007,174.7651644
CC49107,Marist St Pats Shamrock Foundation,Wellington,,32 The Terrace, ,6011,Wellington Central,-41.2801264,174.7750409
CC49279,International Pure Bhakti Yoga Trust,Auckland,,11 Pleasant View Road, ,1072,Panmure,-36.8978924,174.8530262
CC48925,Society of St Vincent de Paul in New Zealand - West Coast Area Council,Wellington,,Level 1,LG Building,6000,35 Victoria Street,-41.2871726,174.7770623
CC49424,Women of Worth Charitable Company Limited,Lower Hutt,,27 Kings Crescent,Pinehaven,5010,Hutt Central,-41.2080636,174.9091786
CC49245,Te Puu Ao Trust,Whangarei,,351 Kamo Road, ,0112,Whau Valley,-35.6929062,174.309286
CC49583,Ko Tuwharetoa Te Iwi Charitable Trust,Turangi,,33 Turanga Place,Turangi 3334,3334, ,-38.9944795,175.8013466
CC49624,New Zealand Centre for Global Studies Charitable Trust Board,Auckland,,Unit G04,2 Finch Street,1022,Morningside,-36.8730591,174.7337008
CC49310,Historic Places Tairawhiti Incorporated,Gisborne,,173 Palmerston Road,Gisborne 4010,4010, ,-38.6649333,178.0271181
CC49191,CANTERBURY ROYAL COMMONWEALTH SOCIETY CHARITABLE TRUST,Christchurch,,54 Urunga Avenue, ,8052,Strowan,-43.5058836,172.6099292
CC48910,Connections Community Trust,Timaru,,46 Rothwell Street, ,7910,Redruth,-44.4186406,171.2450692
CC49610,The Giltrap Trust,Auckland,,"Level 2, 119 Great North Road",Grey Lynn,1021, ,-36.8619719,174.7496128
CC48908,Greater Waikato (CEC) Trust,Hamilton,,133 Newcastle Road, ,3200,Nawton,-37.7881537,175.235311
CC48827,Gyeojassi Church & Centre,Auckland,,15 Paulange Place, ,2010,Pakuranga Heights,-36.9126336,174.8910647
CC49136,Te Ramaroa Trust,Nelson,,114 Hardy Street,Nelson 7010,7010, ,-41.2744333,173.2818733
CC48927,Te Tuareka O Manurewa Trust,Auckland,,3 Rupu Way, ,2024,Favona,-36.9577141,174.81076
CC49095,Christ Enabled Communities Charitable Trust,Porirua,,56 Endeavour Drive, ,5024,Whitby,-41.1160031,174.908114
CC49549,The EPIC Foundation Limited,,,,,,,,
CC48977,Alps 2 Ocean Charitable Trust,Oamaru,,78 Reservoir Road, ,9400,Oamaru North,-45.0799157,170.9702843
CC48945,The Diabetes Wellington Charitable Trust,Wellington,,138 Wakefield Street, ,6011,Te Aro,-41.2903521,174.7778385
CC50088,Jin-Gang-Dhyana Wang Xin De Foundation (New Zealand) Trust,Auckland,,8 Chale Place, ,2014,Somerville,-36.9097477,174.9376469
CC48919,CCCS Panmure Youth Trust,Auckland,,123 Mount Wellington Highway, ,1060,Mount Wellington,-36.9043487,174.8410314
CC48941,The Foundation for Mobility Assistance Dogs,Auckland,,Unit C,13-15 Collard Place,0610,Henderson,-36.8537683,174.634258
CC48976,The Waiheke Recreation Centre Trust,Waiheke Island,,11 Donald Bruce Road,11 Donald Bruce Road,1081,Surfdale,-36.80019190000001,175.0285116
CC49003,Wellington Heritage Multiple Unit Preservation Trust,Wellington,,65 John Sims Drive, ,6035,Broadmeadows,-41.2324218,174.7939364
CC48951,Trail Fund New Zealand Incorporated,Lower Hutt,,31 Wisteria Grove, ,5010,Maungaraki,-41.2062635,174.8843852
CC48980,John and Muriel Perpetual Charitable Trust,Lower Hutt,,56 Queens Drive, ,5010,Hutt Central,-41.2105024,174.9031561
CC49691,Tairawhiti Multicultural Council Incorporated,Gisborne,,393 Palmerston Road,,4010, ,-38.659008,178.0192437
CC49125,Friends of Resthaven Foundation Trust,Cambridge,,6 Vogel Street,,3434, ,-37.89071,175.4564928
CC49530,Parkside Playcentre,Timaru,,35 Harper Street,,7910,Parkside,-44.40413480000001,171.2421524
CC49147,Duncan Bay Residents Association Incorporated,Nelson,,PO Box 1090,,7040, ,,
CC50132,Hamilton Community Men's Shed Trust,Hamilton,,39 Berkley Avenue, ,3216,Hillcrest,-37.8034519,175.3293705
CC50348,Western Districts Hockey Club Incorporated,Auckland,,Hockey Pavilion - Avondale College,"Gate 3, Rosebank Road",,Avondale,-36.8942001,174.7004557
CC48981,Hector Hospital Trust,Auckland,,300 Richmond Road,809 Mount Eden Road,1021,Grey Lynn,-36.8560278,174.7319644
CC48978,"Tawa RSA ""Poppy Fund"" Trust",Wellington,,89 Oxford Street, ,5028,Tawa,-41.1650908,174.8278421
CC49105,Te Anau Volunteer Fire Brigade,Te Anau,,30 Luxmore Drive,,9600, ,-45.4165968,167.7190998
CC49762,West Harbour Arts Charitable Trust Board,Deborah Bay,,365 Aramoana Road,Deborah Bay 9082,9082, ,-45.793054,170.6466374
CC48979,Karl Heinz Reipen Trust,New Plymouth,,53 Brougham Street,New Plymouth 4310,4310, ,-39.059191,174.0736423
CC48984,St Michael's Catholic School Parent Teacher Association,Auckland,,St Michael's School,6 Beatrice Road,1050,Remuera,-36.872761,174.784418
CC48982,Kapiti Living Without Violence Charitable Trust,Paraparaumu,,5 Sheffield Street,,5032, ,-40.9053792,175.0007238
CC48983,City Pathway Trust,Auckland,,429 Queen Street, ,1010,Auckland Central,-36.8573516,174.7611466
CC48999,The Passchendaele Society Incorporated,Auckland,,Unit 303,27 Gillies Avenue,1023,Newmarket,-36.8708619,174.7739094
CC48987,Mussel Reef Restoration Trust,Auckland,,C/-SIMPSON GRIERSON   ATTN: MICHAEL WOOD  LUMLEY CENTRE,88 Shortland Street,1010,Auckland Central,-36.846306,174.7692924
CC50604,Mangawhai Artists Incorporated,Mangawhai,,45 Moir Street,Mangawhai 0505,0505, ,-36.1263981,174.5743535
CC49062,Onemana Voluntary Rural Fire Force Inc,Whangamata,,PO Box 286,,3643, ,-37.2071289,175.8715589
CC49154,Presbyterian Bureau Services Trust Board,Wellington,,Ground Floor,275 Cuba Street,6011,Te Aro,-41.2967194,174.7739625
CC49004,Goodman Fielder Cares Trust,Auckland,,2-8 Nelson Street,8 Nelson Street,1010,Auckland Central,-36.8458025,174.7611496
CC49077,Gujarati Samaj New Zealand Incorporated,Auckland,,"Post Box No. 15144,", ,600,New Lynn,-36.9089749,174.6775009
CC49766,French Bay Yacht Club Incorporated,Auckland,,Bottom of Otitori Bay Road & Valley Road, ,,Titirangi,-36.9490492,174.6653739
CC49123,Life Church Hanmer Springs Trust ,Hanmer Springs,,138 Rippingale Road,,7334, ,-42.52828340000001,172.8207097
CC50121,Paremata Plimmerton Netball Club Incorporated,Porirua ,,Netball Clubrooms,Ngatitoa Domain,5024,Mana,-41.1380517,174.8472141
CC49173,MenzShed Dannevirke Incorporated,Dannevirke,,40 Denmark Street,Dannevirke 4930,4930, ,-40.2105979,176.0992182
CC49049,The Seventh Day Sabbath & Advent Fellowship,Hamilton,,212E Newell Road,RD 3,3283,Tamahere,-37.8297069,175.3315904
CC49020,Chatham Islands Asset Holdings Limited,Chatham Islands,,Owenga Road,,, ,-44.0274405,-176.3616173
CC49179,The Bobby Stafford-Bush Foundation,Auckland,,19 Norwood Road, ,0622,Bayswater,-36.81719349999999,174.771634
CC49129,Food with Love Mission New Zealand Charitable Trust,Te Kauwhata,,9 Matau Close,,3710, ,-37.4010322,175.1560885
CC49032,Estate of Robert Lennard MacGillivray,Auckland,,C/O NZ GUARDIAN TRUST,"Level 8, 191 Queen Street",1010,Auckland Central,-36.8484773,174.7651347
CC49033,Complex Care Group Trust,Mount Maunganui,,202 Grenada Street,Mount Maunganui 3116,3116,Ellerslie,-37.68195100000001,176.2394636
CC49072,Westlakers Incorporated,Auckland,,Westlake Boys' High School,30 Forrest Hill Road,620,Forrest Hill,-36.7771425,174.7492617
CC51206,West Coast Technology Education Trust,Greymouth,,1A Guinness Street,Greymouth 7805,7805, ,-42.4497152,171.2106395
CC51196,Keys of the Kingdom Ministries - Life in the Spirit Fellowship International Trust Board,Auckland,,26 Dolbel Place, ,2024,Mangere East,-36.9669271,174.8114625
CC51232,Movement Art Practice Limited,Christchurch,,76 Hawdon Street, ,8023,Sydenham,-43.5432718,172.6391525
CC51233,Whau Coastal Walkway Environmental Trust,Auckland,,208 West Coast Road, ,0602,Glen Eden,-36.9105273,174.6521946
CC51173,Taitokerau Education Trust,Whangarei,,28 Mt Pleasant Road, ,0110,Raumanga,-35.746545,174.309361
CC51306,Summer of Technology Limited,Wellington,,2 Raukawa Street, ,6022,Strathmore Park,-41.3282988,174.8177221
CC51289,Agape Society of New Zealand Incorporated,Hamilton,,11 Stratford Place, ,3210,Huntington,-37.7356482,175.2817025
CC51377,Glenorchy Heritage Museum Group Incorporated,Glenorchy,,33 Argyle Street,Glenorchy 9372,9372, ,-44.8492174,168.3847686
CC51101,Islamic Ahl-ul-Bayt Foundation Of New Zealand,Auckland,,27 Ben Lomond Crescent,,2010,Pakuranga Heights,-36.91494429999999,174.899199
CC50020,Czech and Slovak Club Tauranga Incorporated,Tauranga,,6 Redhaven Place,,3110,Bethlehem,-37.6924936,176.1171716
CC49831,Eunice Brown Charitable Fund,Dunedin,,110 Vogel Street,Level 5,9016,Dunedin Central,-45.880199,170.5026989
CC49729,Tātai Whetū Foundation,Kaiapoi,,99 Wards Road,RD 1,7691,Waikuku,-43.3041411,172.6651087
CC50414,Auckland Deaf Christian Fellowship,Auckland,,C/O  Arran Court, 85 McLeod Road,0610,Te Atatu South,-36.8768605,174.643966
CC49823,Aasthika Bhaktha Sangeerthana Samajam Charitable Trust,Auckland,,67 Seaview Road, ,1050,Remuera,-36.8679321,174.786657
CC49697,The Friends of Renwick Museum and Watson Memorial Library Society Incorporated,Renwick,,58 High Street,,7204, ,-41.5076207,173.8277873
CC50453,FIANZ Holdings Limited,Wellington,,7-11 Queens Dr, ,6241,Lyall Bay,-41.3204233,174.7939812
CC49670,Hopevale Trust,Timaru,,LEVEL 2,18 Woollcombe Street,7910, ,-44.39910980000001,171.2549653
CC49642,E L and J B Sanderson Cerebral Palsy Trust ,Auckland,,C/O Perpetual Guardian ,"Level 8, 191 Queen Street",1010,Auckland Central,-36.8485007,174.7651644
CC49653,Whangarei Youth Space Trust,Whangarei,,Cafler Park,Water Street,0110, ,-35.725207,174.3166449
CC50361,"The Hutt, Wellington, Kapiti Fire Brigades' Sub Association",Lower Hutt,,24 Russell Road, ,5014,Wainuiomata,-41.2468042,174.9491778
CC50240,CHRISTCHURCH HIGH SCHOOL OLD BOYS RUGBY FOOTBALL CLUB INCORPORATED,Christchurch,,10 Riccarton Avenue, ,8011,Christchurch Central,-43.5291655,172.6173886
CC49655,Community Colleges Of New Zealand Ownership Trust,Rangiora,,140 East Belt,Rangiora 7400,7400,Rangiora,-43.29650880000001,172.5995228
CC49800,Sola Power Throwing Academy,Lower Hutt,,141 Whites Line East, ,5010,Waiwhetu,-41.2241404,174.9160186
CC49639,Tourette's Association New Zealand,Papamoa,,94 Parton Road, ,3118,Papamoa Beach,-37.7113868,176.3134095
CC49751,Toku Mapihi Maurea Whanau Tautoko Incorporated,Hamilton,,137 Silverdale Road, ,3216,Hillcrest,-37.7886238,175.3239416
CC49811,Korean Scholarship Trust,Christchurch,,PO Box 8022, ,8440,Riccarton,-43.5292126,172.6051852
CC49680,Auckland Christian Mandarin Glory Church Trust,Auckland,,10 Dana Place, ,2014,Somerville,-36.9132502,174.9255281
CC49749,Woodville Volunteer Fire Brigade,Woodville,,Ormond Street,,4920, ,-40.3395593,175.8673679
CC49771,Canterbury Direct Investments Limited,Christchurch,,4 Hazeldean Road, ,8024,Addington,-43.541761,172.6160203
CC49724,Rātā Foundation Limited,Christchurch,,4 Hazeldean Road, ,8024,Addington,-43.541761,172.6160203
CC50053,Te Whare o Kenehi,Rotorua,,1415 Hinemoa Street,Rotorua 3010,3010,Rotorua,-38.1376391,176.2436764
CC49641,Invercargill Christadelphian Ecclesia Charitable Trust,Invercargill,,28 Jed Street,,9810, ,-46.4115096,168.3566692
CC49858,The Waitac Trust,Auckland,,70 Don Buck Road, ,0614,Massey,-36.8545784,174.6118011
CC49684,New Testament Church Incorporated,Auckland,,15 Mission View Drive, ,2013,Northpark,-36.91591270000001,174.9219546
CC49662,Albany Senior High School Enterprise Trust,Auckland,,536 Albany Highway, ,632,Albany,-36.7303625,174.6965161
CC50041,PIHMS Student Association Incorporated,New Plymouth,,4 Henwood Road,RD 2,4372, ,-39.03622060000001,174.1416936
CC49951,Ngatiawa Iwi,Paraparaumu,,PO Box 64,,5254, ,-40.9164743,175.0054932
CC49865,Wilderness Canoe Trust,Takaka,,1230 Takaka-Collingwood Highway,RD 2,7182,Onekaka,-40.7513088,172.7129961
CC50210,Brydone Community Centre Incorporated,Brydone,,2 Brydone Glencoe Road,Brydone 9774,9774, ,-46.2560295,168.8069148
CC49702,Wakatipu High School Foundation,Queenstown,,Level 1,13 Camp Street,9300, ,-45.0319521,168.6624715
CC49703,Rotary Club of Wellington Eureka! Trust,Wellington,,32 Melrose Road, ,6023,Island Bay,-41.3372257,174.7792767
CC49956,Queenstown Arts Society Incorporated,Queenstown,,PO Box 132,,9348, ,-45.0314371,168.6624761
CC49815,Nga Parirau Matauranga Charitable Trust,Hikurangi,,3527 Russell Road,RD 4,0184, ,-35.5954906,174.2856745
CC49647,Tauranga Woodcrafters Guild Incorporated,Tauranga,,171 / 52  Condor Dtrive, ,3112,Pyes Pa,-37.7452178,176.129202
CC49719,Moores Reserve Combined Sports Facility Trust,Winton,,43 Gerrard Road,,9720, ,-46.1430798,168.3118159
CC49739,The Dame Sister Mary Leo Foundation,Auckland,,Floor 7,57 Symonds Street,1010,Grafton,-36.8566329,174.7651046
CC50047,Parihaka Network - Ngā Manu Kōrihi Ōtautahi Trust,Rolleston,,77 Fairfield Way,,7614, ,-43.5970071,172.365404
CC51149,New Zealand Association for Research in Education Incorporated,,,,,,,,
CC49650,The Disabled Snowsports Foundation,Alexandra,,150 Letts Gully Road,RD 3,9393,Letts Gully,-45.2258775,169.4048897
CC49732,FROMMS Trust,Karori,,399 Makara Road,RD 2,6972,Makara,-41.2682543,174.705265
CC49809,Al Rasool Foundation of Waikato,,,,,,,,
CC49785,New Zealand Doctors Orchestra Board,Christchurch,,88 Heaton Street, ,8052,Strowan,-43.5116468,172.6147319
CC49846,Rotoehu Ecological Trust,Rotorua,,18 Wharetoroa Drive,RD 4,3074,Rotoiti Forest,-38.0537592,176.4517
CC50341,Welbourn Home & School Association,New Plymouth,,Arawa Street, ,4312,Welbourn,-39.0714081,174.092073
CC49877,St Albans Catholic School Parent Teachers Association,Christchurch,,49 Rutland Street, ,8014,Saint Albans,-43.50757489999999,172.6282418
CC49810,Hawksbury Christian Fellowship,Karitane,,19 Truby King Drive,Karitane 9471,9471, ,-45.6161316,170.6358529
CC50131,Algoritmi Educational Trust,Auckland,,46 Stoddard Road, ,1041,Mount Roskill,-36.9063801,174.7314142
CC49836,Inglewood District Health Trust,Inglewood,,C/- FINTAX,28 Brown Street,4330, ,-39.157754,174.204588
CC49783,Rinchen Jungdan Dongrum Gyal Foundation,Richmond,,485 Hill Street,,7020, ,-41.36147520000001,173.1772436
CC49734,Tupoho Investments Limited,Wanganui,,PO Box 4386,,4541, ,-39.9325588,175.0510577
CC49735,Pukekohe Community Action Charitable Trust,Pukekohe,,43 Queen Street,,2120, ,-37.2022961,174.9008101
CC50078,Te Puke Tigers Rugby League Club Incorporated,Te Puke,,17 Brown Terrace,,3119, ,-37.7857292,176.3215723
CC50051,The Living Fountain Church,Porirua,,124 Warspite Avenue, ,5024,Waitangirua,-41.1354174,174.8785813
CC49683,Taranaki (CEC) Trust,New Plymouth,,29 Lawry Street, ,4310,Blagdon,-39.0652219,174.0468705
CC49742,South Otago Heritage Society Incorporated,Milton,,298 Union Street,,9220, ,-46.1112315,169.9699926
CC49746,Mount Olive Assembly of God Trust Board,Auckland,,7 Clyro Place, ,2024,Mangere East,-36.9611712,174.8156803
CC49747,The Routeburn-Dart Wildlife Charitable Trust,Queenstown,,1 Arthurs Point Road,RD 1,9371, ,-44.9875595,168.6721288
CC50153,Salem Mission Charity of New Zealand Incorporated,Hamilton,,9 Glencoe Place, ,3200,Nawton,-37.7822575,175.2288145
CC49926,Tauranga Girls College Rowing Club Incorporated,Tauranga,,296 Devonport Road,,3110, ,-37.6964429,176.1656083
CC49750,The World Sunshine Church,Auckland,,8 Alice Place, ,0627,Hillcrest,-36.7884713,174.7345762
CC49799,Te Huingawaka Marae,Rotorua,,c/o Postal Centre, ,3015,Kaingaroa Village,-38.1445987,176.2377669
CC50150,CCC Vision Trust,Paraparaumu,,57 Hinemoa Street,,5032, ,-40.9124543,175.0114077
CC50130,The Paraparaumu Beach Golf Foundation Charitable Trust,Paraparaumu,,376 Kapiti Road, ,5032,Paraparaumu Beach,-40.892008,174.9830002
CC49982,Asor Trust,Whangaparāoa,,733-735 Whangaparaoa Road, ,0930,Stanmore Bay,-36.6369389,174.748891
CC50257,Islamic Community Aid Relief Education,Auckland,,Flat 2,89 Glendale Road,602,Glen Eden,-36.9171425,174.649035
CC49753,Invercargill Elim Community Church Trust,Invercargill,,96 Elles Road, ,9812,Georgetown,-46.4197978,168.3616406
CC49757,Wellington Land Search and Rescue Incorporated,Lower Hutt,,19 Kings Crescent," Suite 6, Tawa Community Centre",5010,Hutt Central,-41.2078444,174.9086497
CC49756,Maranatta Assembly Of God Church Trust,Auckland,,4 John Davis Road, ,1041,Mount Roskill,-36.9092636,174.7238368
CC49801,Derek Prince Ministries New Zealand Trust,Christchurch,,38 Hawdon Street,,8023, ,-43.54544,172.6391032
CC49802,Neuroendocrine Cancer New Zealand,Auckland,,34 Montmere Avenue, ,0610,Te Atatu Peninsula,-36.8470374,174.6472014
CC49866,JEREMY NATHAN LIBRARY TRUST,Auckland,,LVL 13,41 Shortland Street,1010,Auckland Central,-36.84700309999999,174.7677706
CC49895,Rotary Club of Invercargill Projects Limited,Invercargill,,20 Don Street,Invercargill 9810,9810, ,-46.4105739,168.3486639
CC50831,Takapau School Parent Teacher Associaton,Central Hawkes Bay,,Charles Street, ,,Takapau,-40.0261831,176.3468149
CC49868,Wandersearch Auckland Charitable Trust,Auckland,,PO Box 302063,North Harbour,751, ,-36.748445,174.6998527
CC49944,Natureland Wildlife Trust,Nelson,,Hounsell Circle, ,7011,Tahunanui,-41.281475,173.2443163
CC49821,Revolution Church,Christchurch,,442 Tuam Street, ,8011,Phillipstown,-43.5357324,172.655112
CC49814,JCRCM Trust,Christchurch,,13C Thornhill Place, ,8042,Sockburn,-43.5340216,172.5429959
CC50127,The Salt and Light Ministries Trust,Coopers Beach,,18 Lori Lane,,0420, ,-34.9947786,173.5105331
CC50243,Ruby Coast Initiative Trust,Mapua,,101A Aranui Road,,7005, ,-41.2508854,173.0917706
CC49828,All Things In Common Project,Matamata,,371 Old Te Aroha Road,RD 1,3471,Okauia,-37.8234102,175.8688491
CC49832,Rick Rudd Foundation,Wanganui,,8 Bates Street,,4500, ,-39.9312669,175.0561373
CC49923,Onslow College Foundation,Wellington,,c/- Onslow College,Private Bag 13906,6440,Johnsonville,-41.2303268,174.7984028
CC50785,NEW PLYMOUTH FULL GOSPEL CHURCH (ASSEMBLIES OF GOD),NEW PLYMOUTH,,41B Lismore Street,Strandon,4312, ,-39.0594544,174.1009248
CC50199,Virtuoso Strings Charitable Trust Board,Porirua,,Unit 2,73 Kenepuru Drive,5022,Kenepuru,-41.1487663,174.8363216
CC51111,Tuhirangi Marae,Kaikohe,,2449 State Highway 12,RD 3,0473,Waimā,-35.4878845,173.5874702
CC50028,Victoria University of Wellington Law Students' Society (Incorporated),Wellington,,"Victoria UniversityFaculty of Law, 15 Lambton Quay", ,6011,Pipitea,-41.2783999,174.7791036
CC49920,The Jelas Foundation,Auckland,,195 Universal Drive,404 Great North Road,0610,Henderson,-36.8802135,174.6371269
CC49883,Macky Unitarian Trust,Auckland,,66 Greys Avenue, ,1010,Auckland Central,-36.854317,174.7613972
CC49854,The Eden Garden Charitable Trust,Auckland,,32 Kingsley Street, ,1022,Westmere,-36.8532902,174.7264795
CC49851,Blenheim Korean Full Gospel Church (Assembly of God) Trust Board,Blenheim,,3 Alana Street, ,7201,Witherlea,-41.5379722,173.953208
CC49911,Mavis Corkill-Hepworth Charitable Trust,Eltham,,195 High Street,,4322, ,-39.4291243,174.2992477
CC49879,Di Buchan Environmental Trust,Otaki,,12 Te Harawira Street,,5512, ,-40.7488499,175.1424364
CC49853,Waipa Community Facilities Trust,Te Awamutu,,3 Selwyn Lane,,3800, ,-38.007527,175.3257356
CC49860,Boyle Village Conservation Group,Christchurch,,12 Ellesmere Street, ,8083,Marshland,-43.4785242,172.6686603
CC50046,Waiuku & District Community Workshop Trust,Waiuku,,5 Hosking Place,,2123, ,-37.2458878,174.7476648
CC50136,Cust School Parent Teacher Association Incorporated,Cust,,473 Earlys Road,RD 1,7471, ,-43.3119104,172.3809459
CC49987,Elijah Ministries Oceania Charitable Trust,Kawerau,,Ranfurly Court,Islington Street,3127,Kawerau ,-38.0859704,176.702418
CC50113,Poppycock Trust,Gore,,81 Hokonui Drive,,9710, ,-46.09146430000001,168.9440263
CC49913,Wyndham Districts Toy Library Incorporated,Wyndham,,24 Redan Street,Wyndham 9831,9831, ,-46.3276805,168.848191
CC50079,Tu Tangata Maraenui Trust,Napier,,2B Terrace Lane, ,4110,Hospital Hill,-39.4868966,176.9088958
CC50062,Kiwiwatch Community Patrol Charitable Trust ,Hamilton,,221 Pukete Road, ,3200,Pukete,-37.736325,175.2362984
CC50058,Christian City Church Palmerston North,Palmerston North,,77 Stanley Avenue,,4414, ,-40.3415752,175.618577
CC49884,Guthrie-Smith Tutira Limited,Hastings,,BROWN WEBB RICHARDSON LIMITED,111 Avenue Road East,4122, ,-39.641101,176.8457394
CC50327,Infoxchange,Auckland,,"Level 4, Building A, BDO Centre",4 Graham Street,1010,Auckland Central,-36.846931,174.7590736
CC50116,Te Araroa Volunteer Fire Brigade,Te Araroa,,51 POHUTU ROAD,PO Box 27,4050, ,-37.6354916,178.369198
CC49916,Geoscience Dream Trust,Christchurch,,124 Montreal Street, ,8023,Sydenham,-43.5414797,172.6309442
CC50213,Hi Well Charitable Foundation,Auckland,,6 Te Kea Place, ,0632,Rosedale,-36.7504894,174.7038943
CC50405,Waitara Alive Incorporated,Waitara,,97 Mould Street,,4320, ,-38.99884249999999,174.2233091
CC49993,The Shirley Evangelical Trust,Christchurch,,5 Flaxgrove Place, ,8083,Parklands,-43.4723422,172.7031803
CC50492,The Cheviot Historical Records Society Incorporated,Cheviot,,18 Cadman Street,,7310, ,-42.8104848,173.2719964
CC49901,K and E Grace Global Mission Inc,Featherston,,7 Clifford Square,,5710, ,-41.1173903,175.3290084
CC49957,Roimata Marae,Waiotahi Valley,,220 Hiwarau Road,RD 2,3198, ,-38.033337,177.1282222
CC49918,Mayfair Theatre Charitable Trust,Dunedin,,Mayfair Theatre,100 King Edward Street,9012,South Dunedin,-45.8926951,170.4983672
CC49900,Paraparaumu RSA Poppy Fund Trust,Paraparaumu,,32 Marine Parade, ,5032,Paraparaumu Beach,-40.8937175,174.9796711
CC50220,Terere Marae Maori Reservation,Opotiki,,Terere Pa Road,Opotiki 3122,3122, ,-38.0122705,177.2871025
CC50076,The New Zealand Cat Foundation,Kumeu,,99 Trigg Road,RD 1,0891, ,-36.7756315,174.5283832
CC49980,Piopio Community Sports Incorporated,Piopio,,Aria Rd,R D 2,3970, ,-38.513053,175.0089317
CC50066,Tamariki and Youth of Manukau Trust,Auckland,,45 Aronia Way, ,2105,Goodwood Heights,-36.9980384,174.8985695
CC49919,MENZSHED NEW ZEALAND Incorporated,Richmond,,17 Lakehouse Crescent,,7020, ,-41.3517514,173.180483
CC49906,Hillcrest High School Rowing Club Inc,Hamilton,,C/- Hillcrest High School,Masters Avenue,3216,Hillcrest,-37.7936421,175.3255943
CC50755,The Stokes Valley RSA Trust Fund,Lower Hutt,,21 Hawthorn Crescent, ,5019,Stokes Valley,-41.1711512,174.9843012
CC50002,The Board of the Dunedin Writers and Readers Festival,Dunedin,,41 Mornington Road, ,9011,Balaclava,-45.8907533,170.4696317
CC50048,Heritage South,Invercargill,,50 Dee Street,Invercargill 9810,9810,,-46.4111421,168.3470457
CC49981,Room-Simmonds Charitable Trust,Auckland,,C/O Perpetual Guardian,"Level 8, 191 Queen Street",1010,Auckland Central,-36.8485007,174.7651644
CC49932,Iona Parents and Friends Association Incorporated,Havelock North,,C/- IONA COLLEGE,Private Bag 1000,4157, ,-39.6702241,176.8771552
CC49950,Community Arts and Circus Trust New Zealand (CACTNZ),Dunedin,,4 Athol Place,,9022,Ravensbourne,-45.864393,170.5582371
CC50158,Ekalesia Fakapotopotoga Kelisiano Tuvalu i Aukilani Charitable Trust,Auckland,,40 Kirrie Avenue, ,0610,Te Atatu South,-36.8719978,174.6414194
CC50185,Kirva Trust,Wellington,,22 Boulcott Street, ,6011,Wellington Central,-41.288105,174.7741485
CC50475,Kapatiran Prayer Fellowship,Wellington,,14 Rosina Street,Clouston Park,5018,Upper Hutt,-41.1179908,175.0824923
CC50427,Tasman Community Trust Incorporated,Upper Moutere,,6 Williams Road,RD 1,7173,Tasman,-41.19552849999999,173.0557966
CC50467,Buller Area Grey Power Association Incorporated,Westport,,39A Queen St,,7825, ,-41.7495896,171.6009903
CC51040,Heart Connexions Charitable Trust,Glenbrook,,2 Okohaka Avenue,,2681, ,-37.1575831,174.7095547
CC49948,Archer-Smith Charitable Trust,Wellington,,Public Trust Tower,22 Willeston Street,6011,Wellington Central,-41.2864564,174.7767067
CC50115,Patutahi Volunteer Fire Brigade,Patutahi,,17 Bigg St,PO Box 111,4045, ,-38.6238094,177.8876322
CC50077,O'Keeffe Education Trust,Tokoroa,,1 Dumfries Road,,3420, ,-38.2312467,175.881407
CC49937,Ignited Hearts Ministries,Silverdale,,79 Upper Waiwera Road,RD 1,0994,Puhoi,-36.5492946,174.6443413
CC50290,Aera Foundation,Auckland,,PO Box 164,Shortland Street,1140,Auckland Central,-36.8470308,174.7701181
CC50043,Kaiapoi Community Garden Trust,Kaiapoi,,Heywards Road,RD 2,7692,Clarkville,-43.4175075,172.6043798
CC49941,Rachel's Vineyard (NZ) Trust,Upper Hutt,,1285 Fergusson Drive, ,5018,Brown Owl,-41.1075543,175.0976878
CC49963,The Harry Barker Sports Facilities Trust,Te Karaka,,17 Kipling Road,,4022, ,-38.4658808,177.8628443
CC50082,Mana Tree Aid Foundation,Gisborne,,24 Lyndhurst Street, ,4010,Awapuni,-38.662556,178.0044298
CC50054,Minds for Minds Trust,Auckland,,17 Burwood Crescent, ,1050,Remuera,-36.8621109,174.7986205
CC49977,Medical Prize Charitable Trust,Christchurch,,7 Cockle Lane, ,8083,Waimairi Beach,-43.4829655,172.721079
CC49984,Te Ara Pae Trust,Hawera,,276 High Street,,4610, ,-39.5876293,174.2773804
CC50021,Assembly of God Church of Samoa Auckland,Auckland,,143 Naylors Drive, ,2022,Mangere,-36.9798074,174.7967576
CC50080,Waitaha Hauora Charitable Trust,Te Puke,,54 Jellicoe Street,,3119, ,-37.7848854,176.3287253
CC49939,Robotics Education NZ Trust,Dunedin,,81 Oakwood Avenue, ,9011,Maryhill,-45.8917184,170.4796368
CC49967,Marlborough Decorative & Fine Arts Society Incorporated,Blenheim,,124 Matthews Lane,RD 3,7273,Rapaura,-41.4927952,173.8922396
CC49973,Gate Global Ministries Trust ,Auckland,,97 Flat Bush School Road, ,2016,Flat Bush,-36.9738326,174.9145621
CC49929,The Child Protection Otago Trust,Dunedin,,7 Delta Street, ,9011,Belleknowes,-45.8708925,170.4805651
CC50372,Hannah Sport And Culture Association Incorporated,Auckland,,44 Portage Road,New Lynn,0600,New Lynn,-36.9128443,174.6902557
CC49972,Kotahitanga Charitable Trust,Auckland,,37 East Tamaki Road,RD 1,2025,Papatoetoe,-36.9681281,174.8613651
CC50328,Adventure For Good Charitable Trust,Haruru,,31 Haruru Falls Road,,0204, ,-35.2788247,174.0504694
CC49986,Maunu Garden Project Charitable Trust,Whangarei,,276 Whangarei Heads Road,RD 4,0174,Tamaterau,-35.7614377,174.3866166
CC49969,Pauanui Community Menz Shed,Pauanui,,23 Centreway,Pauanui 3579,3579, ,-37.0231528,175.8605618
CC49928,Hawera High School Charitable Trust,Hawera,,64 Victoria Street,Hawera 4610,4610, ,-39.5868695,174.2812997
CC50421,Mo'ui Lelei Health and Wellness Charitable Trust Incorporated ,Hamilton,,Mo'ui Lelei Charitable Trust Inc,6a Tamar Place,3200,Nawton,-37.7818232,175.2336366
CC50017,Aorere College Foundation,Auckland,,Aorere College,Portage Road,2025,Papatoetoe,-36.9823895,174.8327342
CC50029,Youth Voices Action (YVA) Incorporated,Tauranga,,"c/- The Historic Village, 159 17th Avenue West", ,3110, Tauranga South,-37.7045373,176.1485378
CC49976,Mararoa Parent Teacher Association,Te Anau,,2373 Te Anau Mossburn Highway,RD 2,9672, ,-45.5450341,167.8950784
CC50662,Manu Tute Charitable Trust,Hamilton,,33A Carey Street, ,3200,Maeroa,-37.7770407,175.2564808
CC49991,Rotary River Pathways Trust,Waipukurau,,251 Farm Road,RD 4,4284, ,-40.0273717,176.5831137
CC49931,Orphan Kids charity (OKC),Mapua,,101A Aranui Road,,7005, ,-41.2508854,173.0917706
CC49922,Featherston Menz Shed Incorporated,Featherston,,50 Fox Street,,5710, ,-41.1171038,175.3267123
CC49997,ETHIOPIAN ORTHODOX TEWAHEDO DEBREGENET ST. MARY'S CHURCH (IN EXILE) INCORPORATED,Auckland,,26D Portage Road, ,0600,New Lynn,-36.9064482,174.6908751
CC49914,Napier RSA Welfare Trust,Napier,,34 Vautier Street, ,4110,Napier South,-39.4941257,176.917919
CC49983,Link Pathway Trust,Picton,,c/- Rick Edmonds, ,,62 Moenui Bay,-41.2954812,174.0028153
CC50366,I Love Avondale,Auckland,,1855 Great North Road, ,1026,Avondale,-36.8941719,174.6962063
CC49962,Northland Proprietors' Trust,Kaikohe,,25 Hillcrest Road,,405, ,-35.405796,173.7924773
CC49943,Turangawaewae Trust Board,Ngaruawahia,,24 River Road,Ngaruawahia 3720,3720, ,-37.6625786,175.1531506
CC49989,J H Ranch Trust Board,Auckland,,Level 1,130 St Georges Bay Rd,1052,Parnell,-36.8506829,174.7820317
CC50001,Ngati Pahauwera Commercial Development Limited,Wairoa,,74 Queen Street,,4108, ,-39.0346145,177.4213347
CC49966,The Donald Paterson Educational Trust,Wellington ,,c/- Macalister Mazengarb ,PO Box 927,6140, ,-41.2831056,174.7761781
CC50859,Taranaki Kidz Kartz and Pony Trust,Hawera,,11 Hunter Street,,4610, ,-39.5893365,174.2661034
CC49992,SUNMOK CHURCH TRUST,Auckland,,36B Kingsview Road, ,1024,Mount Eden,-36.8874414,174.7565264
CC49965,The Pamela Paterson Educational Trust,Wellington ,,c/- Macalister Mazengarb,PO Box 927,6140, ,-41.2831056,174.7761781
CC50734,Hearing Research Foundation of New Zealand Trust Board,Auckland,,C/O Perpetual Guardian,"Level 8, 191 Queen Street",1010, ,-36.8485007,174.7651644
CC50303,LUME Network,Paraparaumu,,17B Sunshine Avenue,,5032, ,-40.9074772,175.0113583
CC49994,New Zealand Tree Crops Association Incorporated,Tuakau,,327A Whangarata Road,RD 4,2694, ,-37.26161860000001,174.9772402
CC49979,Maungaturoto Opportunity Shop 2013 Charitable Trust,Maungaturoto,,149 Hurndall Street West,Maungaturoto 0520,0520, ,-36.1102826,174.3536455
CC50771,Voice of the Martyrs,,,,,,,,
CC50126,Diversity Counselling New Zealand,Hamilton,,"Vickery house, Level 1, 113", Alexandra street,3204,Hamilton Central,-37.7887537,175.2822383
CC50770,Friends of Otorohanga College Sports Committee,Otorohanga,,C/- Vianni Ward Otorohanga College,Bledisloe Avenue,3900, ,-38.1792884,175.2062999
CC50071,Drop Deep NZ Trust,Auckland,,72B Gladstone Road,,0627,Northcote,-36.8074417,174.7397799
CC50449,QuizEd Trust,Upper Hutt,,35 Wyndham Road, ,5019,Pinehaven,-41.1593716,175.0094537
CC50004,Kiwi Glynn Foundation Trust,Christchurch,,205 Durham Street South, ,8011,Christchurch Central,-43.5371545,172.6334416
CC50063,Get Kids Active Charitable Trust,Taupo,,109 Tuwharetoa Street,,3330, ,-38.6901981,176.0751855
CC50450,Whakatane Touch Association Charitable Trust,Whakatane,,28C Barry Avenue,Whakatane 3120,3120,Whakatāne,-37.95018,176.983368
CC49999,Dance Therapy NZ,Auckland,,"Onehunga Community Centre, 83 Church Street", ,1061,Onehunga,-36.9231014,174.7842694
CC50655,Historic Clyde Incorporated,Clyde,,16 Naylor Street,Clyde 9330,9330, ,-45.1843286,169.317757
CC50107,Prima Volta Charitable Trust,Napier,,49 Tennyson Street, ,4110,Napier South,-39.4894469,176.9171416
CC50044,Association of Friends of the Cathedral Grammar School Incorported,Christchurch,,2 Chester Street West, ,8013,Christchurch Central,-43.5278673,172.6286678
CC50024,Reti Philanthropic Foundation,Whangarei,,17 Rust Avenue,,110, ,-35.7230098,174.3168939
CC50068,Rock of Ages Samoan (Assembly of God),Auckland,,346 Pakuranga Road, ,2012,Pakuranga Heights,-36.9008257,174.898394
CC50277,Leukaemia & Blood Cancer Endowment Fund,Auckland,,6 Claude Road,"Level 13, 191 Queen Street",1023,Epsom,-36.8944777,174.7752978
CC50014,Otago Southland Diabetes Research Trust,Auckland,,C/O Perpetual Guardian,"Level 8, 191 Queen Street",1010,Auckland CBD,-36.8485007,174.7651644
CC50040,THE BOYS HUT TRUST,Auckland,,25 Himikera Avenue, ,1026,Avondale,-36.8918779,174.7024
CC50034,The Wanaka Watersports Facility Trust,Wanaka,,51 Wanaka-Mount Aspiring Road,Wanaka 9305,9305,Maori Hill,-44.700381,169.1195987
CC50010,Cooper Family Charitable Foundation,Auckland,,LEVEL 2,130 Quay Street,1140,Auckland Central,-36.8441047,174.7691521
CC50216,Light and Salt Charitable Trust,Auckland,,27 Fairfax Avenue, ,0627,Northcote,-36.8122502,174.7365
CC50225,Long Story Short Charitable Trust,Tauranga,,30A Eleventh Avenue,,3110, ,-37.70051369999999,176.163727
CC50204,Akaroa Health Limited,Christchurch,,130 Kilmore Street, ,8040,Christchurch Central,-43.527066,172.63782
CC50052,Cobham Oval Trust,Whangarei,,79 Okara Drive,,110, ,-35.7357793,174.3307739
CC50975,Carlaw Heritage Trust,Auckland,,PO Box 112234, ,1642,Penrose,-36.9096939,174.8145237
CC50320,Whangarei Men's Shed Incorporated,Whangarei,,47A Kauika Road West, ,0110,Avenues,-35.7265999,174.3080213
CC50202,Canterbury Regional Basketball Foundation,Christchurch,,34 Allen Street, 50 Victoria Street,8011,Christchurch Central,-43.5252531,172.6321197
CC50049,Auckland Primary Principals Trust Board,Auckland,,181A Wallace Road, ,2022,Mangere Bridge,-36.9554395,174.7827728
CC50036,DermNet New Zealand Trust,Auckland,,145 Great South Road, ,1051,Greenlane,-36.8872589,174.789203
CC50331,Rotorua and District Justices of the Peace Association Incorporated,Rotorua,,57 McDowell Street, ,3015,Springfield,-38.1604655,176.2321756
CC50984,Rotary Club of Waikato Sunrise Charitable Trust,Hamilton,,P.O. Box 9087,,, ,,
CC50356,Wairoa Rangers Rugby Football Club Incorporated,Papakura,,C/O Graeme Sexton,"38 Clevedon-Kawakawa Road, RD 5",2585,Clevedon,-36.988305,175.0411585
CC50089,Braid Incorporated,Oxford,,22 Somerset Drive,RD 1,7495, ,,
CC50272,Glenavy School Community Bus Trust,Oamaru,,315A Georgetown-Pukeuri Road,RD 15K,9494,Pukeuri,-45.0136015,171.0039116
CC50104,The Archibald Baxter Memorial Trust,Dunedin,,55 Evans Street, ,9010,Opoho,-45.8541367,170.5286551
CC50420,Safe Turangi,Turangi,,Safe Turangi,PO Box 121,3334, ,16.9355944,82.2284486
CC50084,Kawerau Fitness Community Trust,Kawerau,,13 Forbes Place,,3127, ,-38.0899819,176.6929543
CC50313,The Greenhithe Primary School Parent Teacher Association,Auckland,,Isobel Rd, ,0632,Greenhithe,-36.7757321,174.6783429
CC50258,Hagar Humanitarian Aid Trust,Christchurch,,10A Nazareth Avenue, ,8024,Middleton,-43.5440324,172.5803708
CC50148,Napier and Hastings Samoan Assembly of God Early Childcare Centre Incorporated,Napier,,190 Riverbend Road,Marewa,4110,Meeanee,-39.5206636,176.9011679
CC50232,ECHO Walking Festival Incorporated,Waihi,,90 Seddon Street,,3610, ,-37.3906789,175.842334
CC50842,Affirm Council Trust Board,Whangaparaoa,,14 Rakino Avenue, ,0930,Manly,-36.6396818,174.7560586
CC50285,Umoja Migrants Services New Zealand,Auckland,,11 Railside Avenue, ,0612,Henderson,-36.8796991,174.6315118
CC50391,Generous Ventures Trust,Wellington,,7 Dixon Street, ,6011,Te Aro,-41.29241529999999,174.7783326
CC50426,Sonia's Musikgarten Foundation Board,Wellington,,RAINEY COLLINS  Level 16,171 Featherston Street,6011,Wellington Central,-41.2844491,174.7765307
CC50093,Torch of the Nations Ministries NZ Trust,Auckland,,64D Friesian Drive, ,2022,Mangere,-36.9729492,174.8075444
CC50205,Wantwood Community Room Preservation Society,Blenheim,,51 Church Lane,RD 1,7271,Wairau Valley,-41.5555902,173.5360948
CC50255,Sanctuary of Grace Church Rotorua,Rotorua,,8B Ruihi Street, ,3010,Victoria,-38.1429941,176.2485115
CC50100,Every Nation Ministries,Auckland,,13A McRae Road, ,1060,Mount Wellington,-36.9080904,174.8354199
CC50183,Auckland Spanish Congregation of Jehovah's Witnesses,Auckland,,3 Hepburn Street, ,1011,Freemans Bay,-36.8575355,174.7499595
CC50608,Hosanna Dannevirke Baptist Church,Dannevirke,,331 High Street,Dannevirke 4930,4930, ,-40.1959078,176.1108056
CC50790,Cromwell Bowling Club Incorporated,Cromwell,,50 Alpha Street,Cromwell 9310,9310, ,-45.0465033,169.2128287
CC50099,Marlborough Readers & Writers Charitable Trust,Blenheim,,31 Severne Street, ,7201,Yelverton,-41.51296050000001,173.9292055
CC50173,The Cannons Creek Youth Charitable Trust,Porirua,,Freedom House,174 Bedford Street,5024,Cannons Creek,-41.1424292,174.865957
CC50110,Te Reanga Ipurangi - Otaki Education Trust,Otaki,,2 Scott Avenue, ,5512,Otaki Beach,-40.7434933,175.1126073
CC50106,NZ German Shorthaired Pointer Rescue Charitable Trust,Lumsden,,24 Laura Street,,9730, ,-45.741225,168.4452559
CC50282,Anglican Communications Limited ,Auckland,,123 Carlton Gore Road, ,1023,Newmarket,-36.8653899,174.7766623
CC50118,Reformed Church of Oamaru Trust Board,Oamaru,,4 Eden Street,,9400, ,-45.0967,170.9730885
CC50151,Safer North Community Trust,Matamata,,87 Gunn Road,RD 2,3472,,-37.847758,175.7153754
CC50152,Sailability Whanganui Trust,Wanganui,,6 Tulloch Street, ,4500,Saint Johns Hill,-39.9107851,175.0417808
CC51035,Bay of Plenty Inservice Training Trust,Tauranga,,105 Windsor Road, ,3110,Bellevue,-37.6798875,176.1289837
CC50315,The One Victoria Trust Board Incorporated,Hamilton,,1 Victoria Street,Waikato Mail Centre,3204,Hamilton Central,-37.7923149,175.2874267
CC50105,Growing Places Charitable Trust,Wellington,,72 Majoribanks Street, ,6011,Mount Victoria,-41.2954888,174.7879071
CC50103,Out and About Life Education Trust,Clarks Beach,,3 Torkar Road,,2122, ,-37.13407340000001,174.70806
CC50177,Khmer Incorporated,Auckland,,8 O'Connell Street, ,2102,Manurewa,-37.033096,174.8896705
CC50111,New Zealand Wheelchair Body Building Federation Charitable Trust Board,Hamilton,,74 Howell Avenue, ,3216,Riverlea,-37.8044051,175.3179136
CC50884,"""The Incubator"" Growing Art and Culture Charitable Trust Board",Tauranga,,The Incubator,"The Historic Village , 159 17th Avenue",3112, ,-37.7048381,176.1494385
CC50120,Alton Library and Coronation Hall Society Incorporated,Patea,,611 Hursthouse Road,RD 2,4598, ,-39.6844836,174.4717611
CC50219,Riverhead Rampage Incorporated,Riverhead,,1002 Coatesville-Riverhead Highway,,820, ,-36.7539637,174.5953585
CC50167,Wellington Christian Education Trust,Wellington,,58 Pembroke Road, ,6012,Northland,-41.2772806,174.7599175
CC50913,Morgan B Dance Trust,Opunake,,366 Lower Parihaka Road,RD 35,4685,Pungarehu,-39.2976663,173.7663516
CC50147,RECAP : The Society for the Resilience and Engagement of the Community of Ashhurst and Pohangina Incorporated,Ashhurst,,112 Lincoln Street,,4810, ,-40.2879423,175.7516811
CC50124,Stepping Stones Foundation,Whanganui,,19 Jackson Street, ,4500,College Estate,-39.9363163,175.0366032
CC50248,Taranaki Secondary Schools Sports Association,New Plymouth,,"Yarrow Stadium, Sport Taranaki Building",Maratahu Street,4310,Westown,-39.070694,174.066623
CC50386,"Te Rauhitanga o te Mano o Tipene, St Stephens School Old Boys' Association Incorporated",Takanini,,Flat 2,11 Gloaming Place,2112,Conifer Grove,-37.0446306,174.9141956
CC50292,Grace Global New Zealand Trust,Auckland,,827 Chapel Road, ,2016,Shamrock Park,-36.920002,174.9269535
CC50505,Mossburn District Charitable Trust,Lumsden,,1263 Mossburn Lumsden Highway,RD 2,9792,Mossburn,50.6462813,-104.8675689
CC50459,Impact Consulting Group,Auckland,,12 Grafton Road, ,1010,Auckland Central,-36.8532981,174.7709502
CC50129,1st seek God Charitable Trust,Auckland,,Flat 1,252 Bucklands Beach Road,2012,Bucklands Beach,-36.8823287,174.9121904
CC50256,Rotary Club of Highbrook Incorporated Charitable Trust,Auckland,,PO Box 204244,Highbrook,2161,East Tamaki,-36.9402154,174.8774972
CC50146,The Njombe Educational New Zealand Trust,Hamilton,,26 Meadowgreen Drive,RD 3,3283,Tamahere,-37.8136561,175.3313952
CC50139,University of Canterbury Hockey Club Incorporated,Christchurch,,C/O UCSA,90 Ilam Road,8041,Ilam,-43.52426089999999,172.580083
CC50276,Point 5 Foundation Charitable Trust of New Zealand,Te Anau,,35 Paton Place,,9600, ,-45.40867410000001,167.7331656
CC50168,Pan Pacific Restoration,Auckland,,83 Retreat Drive, ,2022,Mangere,-36.9855454,174.8152485
CC50164,Greenstone Doors Charitable Trust,Lower Hutt,,194 Naenae Road, ,5011,Naenae,-41.2011927,174.9538124
CC50358,Otaki and District Memorial RSA Incorporated Poppy Trust,Ōtaki,,9 Raukawa Street,Ōtaki 5512,5512,Otaki Beach,-40.7520207,175.1400135
CC50161,Puaseisei Atia'e Trust,Auckland,,41 Winthrop Way, ,2024,Mangere East,-36.97273300000001,174.8251796
CC50198,Saewoomtor,Auckland,,35 Pinedale Place, ,0610,Henderson,-36.8682401,174.6246422
CC50382,Age Concern Hauraki Coromandel Incorporated,Thames,,200 Mary Street,Thames 3500,3500, ,-37.1384387,175.5409832
CC50286,The Dutch School Auckland,Albany,,37 John Brian Drive,RD 4,0794,Redvale,-36.6887531,174.7086398
CC50223,Second Chance,Upper Moutere,,29 Goddard Road,RD 1,7173,Tasman,-41.1905706,173.0482955
CC50288,Living Grace Baptist Church and Ministries,Auckland,,50 Paragon Avenue, ,0626,Beach Haven,-36.7866271,174.6910319
CC50587,LUG 4/2 Incorporated,Christchurch,,60 Cathedral Square, ,8011,Christchurch Central,-43.5300625,172.6371182
CC50188,HE KĀKANO YOUTH & COMMUNITY TRUST,Russell,,12 Wellington Street,,0202, ,43.9131587,-78.6822565
CC50437,Cauldron of the four winds,Kaukapakapa,,494 Makarau Road,RD 3,0873, ,-36.5588257,174.5101814
CC50157,Roy & Joan Watson Trust,Wellington,,C/- Wellington Hospitals Foundation,Wellington Hospital,6242,Newtown,-41.3088763,174.7800823
CC50166,Napier RSA Poppy Charitable Trust,Napier,,34 Vautier Street, ,4110,Napier South,-39.4941257,176.917919
CC50284,Westminster Property Trust,Auckland,,31 Westminster Gardens, ,632,Unsworth Heights,-36.7596901,174.7116902
CC50227,The Campaign for Wool New Zealand Trust,Napier,,50A Ossian Street,15 Shakespeare Road,4110,Ahuriri,-39.48528,176.8991334
CC50280,Te Aute Trust Board Incorporated,Auckland,,LEVEL 4,123 Carlton Gore Road,1023,Newmarket,-36.8653899,174.7766623
CC50268,Cornerstone Community Church,Auckland,,18 Allright Place, ,1060,Mount Wellington,-36.911225,174.8482842
CC50237,MIGRANT AND ETHNIC COMMUNITY SUPPORT TRUST,Christchurch,,24 Bordesley Street,,8011,Phillipstown,-43.5405793,172.6631758
CC50195,iEngagEd Limited,Hamilton,,University of Waikato,Financial Services Division,3240,"Gate 5, Hillcrest Road",-37.7972398,175.3147998
CC50351,Tauranga Village Radio Museum Incorporated,Tauranga,,Historic Village,17th Avenue West,, Gate Pa,-37.7045373,176.1485378
CC50207,Hope Rescue Trust,Papakura,,620 Karaka Road,RD 1,2580,Karaka,-37.134121,174.8898579
CC50249,Word of Life Community Church ,Auckland,,4 Woolaston Place, ,2016,Flat Bush,-36.9613012,174.9345361
CC50537,Ivor Walter Stickley Charitable Trust,Te Awamutu,,381 Alexandra Street,,3800, ,-38.0091981,175.3213356
CC50266,The Potters House Christian Centre Central Auckland,Auckland,,239 Green Lane West, ,1051,Epsom,-36.8926577,174.7758278
CC50640,New Zealand Asia Trust,Auckland,,8 Lauchlan Avenue, ,1023,Epsom,-36.9050552,174.7727207
CC50504,The Word Ministry Church,Auckland,,17 Tilberg Street, ,2024,Favona,-36.953631,174.8007519
CC50364,Stellar Singers Incorporated,Auckland,,26 Auld Street, ,630,Torbay,-36.6948042,174.7556099
CC50541,HIPPY Taupo Charitable Trust,Taupo,,344 Lake Terrace,,, ,-38.7155638,176.084477
CC50742,Conservation International Aotearoa Limited,Auckland,,"c/o Dean of Science , Rm 302-660, Bldg 302"," University of Auckland, 23 Symonds St,",1010,Auckland Central,-36.8533237,174.7683709
CC50517,Taupo Waka Ama Club Incorporated,Taupo,,43 Mere Road,,3330, ,-38.6945762,176.0849197
CC50293,Peace Promise Limited,Auckland,,32 Aberfoyle Street, ,1023,Epsom,-36.8891448,174.7635957
CC50337,Living Water Assembly of God Trust,Auckland,,39 Naylors Drive, ,2022,Mangere,-36.9801665,174.7937547
CC50377,Impact Gymsport Academy Incorporated,Mount Maunganui,,"Pavillion 1, ASB Arena",81 Truman Lane,3116, ,-37.6854021,176.2254048
CC50712,Bible Baptist Church Christchurch,Christchurch,,326 Halswell Road, ,8025,Halswell,-43.5778195,172.5670805
CC50525,Christchurch Arts Audience Development Trust,Christchurch,,329 Durham Street North, ,8013,Christchurch Central,-43.5272224,172.6334125
CC50306,New Zealand Young Singers In Harmony Trust,Lower Hutt,,69 Rutherford Street, ,5010,Hutt Central,-41.2078875,174.9042365
CC50480,The Methodist Church Of New Zealand Haahi Weteriana O Aotearoa Birkenhead Samoan Parish (9530),Auckland,,237 Onewa Road, ,0626,Birkenhead,-36.8097451,174.7259468
CC50302,SOUTH ASIAN TRUST INCORPORATED,Auckland,,15A,Norman Spencer Drive,2104,Papatoetoe,-36.987511,174.8678835
CC50218,ME/CFS Support (Auckland) Incorporated,Auckland,,Unit 29,Tuscany Towers,0600,New Lynn,-36.9089749,174.6775009
CC50779,Tuakau Emergency Services Charitable Trust,Tuakau,,9 Coles Road,,2121, ,-37.2706012,174.9474702
