CharityRegistrationNumber,Name,StreetAddressLine1,StreetAddressLine2,StreetAddressSuburb,StreetAddressCity,StreetAddressPostcode,StreetAddressCountry,Latitude,Longitude
CC48103,Aiga Salevalasi Charitable Trust,2 Clayburn Road, ,Glen Eden,Auckland,0602,,-36.9093554,174.6525624
CC48519,Community Living Limited,180 Collingwood Street, ,Hamilton Lake,Hamilton,3204,,-37.7909359,175.2783095
CC49017,CORE Education Charitable Trust,323 Madras Street, ,Christchurch Central,Christchurch,8013,,-43.5252612,172.6423469
CC50425,Journey New Zealand Trust,6 Kaka Street,RD 14,Pohangina,Ashhurst,4884,,-40.171327,175.7939517
CC48539,Music Futures Incorporated,17 Helen Street, ,Brooklyn,Wellington,6021,,-41.3034848,174.7625844
CC48540,Tumanako Hou Trust Whakatane,"First Floor, 4 Canning Place",Whakatane 3120, ,Whakatane,3120,,-37.9519068,176.9969006
CC48800,Nga Wairiki Ki Uta Charitable Trust,72 Putiki Drive, ,Putiki,Whanganui,4500,,-39.9425338,175.053769
CC48411,Otautahi Women's Refuge Incorporated,,,,,,,-40.900557,174.885971
CC48597,Pike River Miners Family Educational Trust,24 Guinness Street,,,Greymouth,7805,,-42.4494702,171.2098611
CC48813,Papawhenua Charitable Trust,85 Hendersons Line,Marton 4710, ,Marton,4710,,-40.0834086,175.3705019
CC48389,Dream Chaser Foundation - A Chace Topperwien Charity,253 Harbour Road,,Ōhope,Ohope,3121,,-37.98079,177.0980094
CC48897,Human Aid Focus New Zealand,50 Tip Road, ,Awapuni,Palmerston North,4412,,-40.3861351,175.5830501
CC48109,Hohepa Services Limited,State Highway 2, ,Clive,Hawkes Bay,4102,,-39.3638627,176.9019139
CC48097,Templeton RSA Poppy Charitable Trust,342 West Melton Road,RD 5,West Melton,Christchurch,7675,,-43.5507237,172.3696656
CC48094,The Waterfront Theatre Trust,487 Dominion Road, ,Mount Eden,Auckland,1024,,-36.8859492,174.7473972
CC48106,Christian Schools of Auckland Charitable Trust,77 Rogers Road, ,Manurewa,Auckland,2102,,-37.0286454,174.9003377
CC48114,The First Samoan Full Gospel Pentecostal Church (Stokes Valley) Trust Board,151 Stokes Valley Road, ,Stokes Valley,Lower Hutt,5019,,-41.1708652,174.9833145
CC48412,Wainuiomata Choir Incorporated,9 Sheehy Grove, ,Wainuiomata,Lower Hutt,5014,,-41.2636683,174.9430692
CC48104,The Edith Collier Trust,"BELTON, SMITH & ASSOCIATES LTD",PO Box 4386, ,Wanganui,4541,,-39.9301234,175.0500071
CC49276,Northern Emerging Talents Trust,140 Lawson Drive,, ,Tutukaka,0173,,-35.634442,174.5377449
CC48258,Auckland Youth Arts Trust,71D Lake Road, ,Devonport,Auckland,0624,,-36.8126275,174.7919931
CC48158,Christchurch Coastal Pathway Group Incorporated,3 McCormacks Bay Road, ,Mount Pleasant,Christchurch,8081,,-43.5560177,172.7206175
CC48208,The Healing Hands Spiritualist Church Papakura Incorporated,Wellington Park,1 Great South Road,Papakura,Auckland,2113,,-37.0543208,174.9323313
CC50812,New Zealand Tango Festival Charitable Trust,127A Abel Smith Street, ,Aro Valley,Wellington,6011,,-41.2950605,174.7698047
CC48130,LOVE OF JESUS CHURCH,15 Rimu Road, ,Manurewa,Auckland,2102,,-37.0328341,174.8999221
CC48598,MANUKAU NEW LIFE COMMUNITY TRUST,12 Jellicoe Road, ,Manurewa,Auckland,2102,,-37.0189696,174.8886325
CC48007,Maniototo Anglican Church Trust No. 2,5106 Danseys Pass Road,RD 2,Naseby,Ranfurly,9396,,-45.0264837,170.15302
CC48149,Prebbleton School Parent Teacher Association,Prebbleton School,4 Blakes Road, ,Prebbleton,7604,,-43.5776612,172.5137446
CC48225,Nelson Samba Collective Charitable Trust,7 Dodson Valley Road, ,Atawhai,Nelson,7010,,-41.2367803,173.3181809
CC48443,Tatum Scout Memorial Trust,1 Kaiwharawhara Road, ,Kaiwharawhara,Wellington,6035,,-41.2600742,174.7893409
CC49463,Sri Veda Vidya Pitham Incorporated,Flat 1,1 Amberwood Drive,Northpark,Auckland,2013,,-36.9201946,174.9158326
CC50234,Tere Waitomo Community Trust,709 Waitomo Caves Road,Waitomo 3977, ,Waitomo,3977,,-38.262211,175.1144912
CC48418,Excellere College Support Group,39 Great North Road, ,Kamo,Whangarei,0112,,-35.6694439,174.2973748
CC49222,Opape Marae and Urupa Trustees,120A Wellington Street,, ,Opotiki,3122,,-38.0145605,177.2892213
CC48830,Waitakere Indian Association,399 Don Buck Road, ,Massey,Auckland,0614,,-36.8346347,174.603468
CC48410,Young Muslim Women's Association Incorporated,406 Richardson Road, ,Mount Roskill,Auckland,1041,,-36.909924,174.7258515
CC48335,Highland Home Christian Camp,1352 Pohangina Valley East Road,RD 14,Pohangina,Ashhurst,4884,,-40.1261882,175.8618516
CC48169,New Zealand Chinese Methodist Charitable Trust,37 Divich Avenue, ,Te Atatu South,Auckland,610,,-36.87935,174.6513234
CC50154,Ararimu Pre-School Incorporated,CNR Ararimu 1 Steel Road, ,Ararimu,RD 3 Drury,2579,,-37.140668,175.0373941
CC48139,The YMCA Palmerston North Community Trust,125 Grey Street, ,Springvale,Wanganui,4501,,-39.9290186,175.031237
CC48618,Te Maata Marae and Reihana Taukawau Waahi Tapu Trust,2304 Whangarei Heads Road,RD 4,Whangarei Heads,Whangarei,0174,,-35.8250507,174.5232783
CC48138,Porirua City Band Youth Trust,2B Wi Neera Drive, ,Porirua City Centre,Porirua,5022,,-41.12732,174.8402559
CC48014,The Church of God in Wellington Incorporated,Moera Community Hall,Randwick road,Moera,Hutt City,5010,,-41.2245696,174.9056422
CC48244,New Zealand Essential Tremor Support Group Incorporated,12 Coates Avenue, ,Orakei,Auckland,1071,,-36.8540976,174.8128395
CC48147,Vernon Tews Charitable Trust,41A Merani Street,,Narrow Neck,Auckland,0622,,-36.8090048,174.7959678
CC48159,Northern Community Family Service,43 Hobson Avenue,, ,Kerikeri,230,,-35.2297107,173.9498039
CC48148,Ray Watts Charitable Trust,Level 14,45 Johnston Street,Wellington Central,Wellington,6011,,-41.2827678,174.7763466
CC48193,The Jackson Family Foundation,Level 13,41 Shortland Street, ,Auckland,1010,,-36.8470031,174.7677706
CC48414,Ryder-Cheshire Foundation Waikato,97 Sandwich Road, ,Saint Andrews,Hamilton,3200,,-37.7493402,175.2534044
CC48337,Glen Eden Community and Recreation Centre Incorporated,111 Glendale Road, ,Glen Eden,Auckland,0602,,-36.9189386,174.6492161
CC51337,Ohotu 1C1 Matahiwi Marae Trustees,4 Kea Place, ,Whanganui East,Whanganui,4500,,-39.9043127,175.0671389
CC48323,Intercp NZ,3 Dianthus Place,,Browns Bay,Auckland,0630,,-36.7243189,174.7308898
CC49075,Creative Waikato,11 Garden Place, ,Hamilton Central,Hamilton,3204,,-37.7879857,175.2821331
CC49392,Beerescourt Tennis Club Incorporated,68 Maeroa Road, ,Maeroa,Hamilton,3200,,-37.7723092,175.2613529
CC48413,Tiger Charitable Trust,LEVEL 1,5 Crummer Road,Grey Lynn,Auckland,1021,,-36.8591435,174.7499351
CC49668,Carey Trust 2012,17 Oxford Street, ,Tawa,Wellington,5028,,-41.1721288,174.8262962
CC48260,Hosea Charitable Trust,12 Eleventh Avenue,, ,Tauranga,3110,,-37.7015161,176.1656714
CC48299,Rei Foundation Limited,13/143 Quay Street, ,Auckland Central,Auckland,1010,,-36.8396446,174.7655329
CC48429,Ethos Foundation ,10 Taharoto Road, ,Takapuna,Auckland,622,,-36.7902286,174.7611758
CC48972,Kiwitea Water Scheme Trust,GREER & WONG LTD,233 Broadway Avenue, ,Palmerston North,4414,,-40.3507654,175.619675
CC48314,New Zealand Sikh Community Tauranga Trust,43 Burrows Street, ,Tauranga South,Tauranga,3112,,-37.7092706,176.1640883
CC48420,The Pitt Island Barge Society,Pitt Island,, ,Chatham Islands,,,-44.2898582,-176.2260131
CC48100,Pilgrim Baptist Church,54 Winsford Street,,Manurewa,Auckland,2102,,-37.0242491,174.881201
CC48534,Shekinah Tabernacle,113 George Street, ,Stokes Valley,Lower Hutt,5019,,-41.1680794,174.9812215
CC48357,Naseby Development Charitable Trust,78 Reservoir Road, ,Oamaru North,Oamaru,9400,,-45.0799157,170.9702843
CC48815,Mount Egmont Alpine Club Incorporated,PO Box 62,, ,Hawera,4640,,-39.5891194,174.2826385
CC48404, Korean Positive Ageing Charitable Trust,160 Murphys Road, ,Flat Bush,Auckland,2019,,-36.9792331,174.919959
CC48242,Asert-Tatou Development Trust,Raiha Street, ,Kenepuru,Porirua,5022,,-41.1440999,174.8288331
CC48073,Stepping Stone Ministries Trust,161 Peers Road,RD 1, ,Tauranga,3171,,-37.8429429,176.0738077
CC48555,Ross Charitable Trust,Level 9 Southern Cross Bld,59 High Street,CBD,Auckland,,,-36.8489377,174.7660721
CC48184,SOUTH PACIFIC TRUE BUDDHAS CHARITABLE TRUST BOARD ,80 Yates Road, ,Mangere East,Auckland,2024,,-36.9627616,174.8192719
CC48352,Forward Foundation,354A Ilam Road, ,Bryndwr,Christchurch,8053,,-43.5100188,172.5878687
CC49795,Friends of Puke Ariki Incorporated,1 Ariki Street,New Plymouth 4310, ,New Plymouth,4310,,-39.0572043,174.071318
CC48192,Multiples NZ Incorporated,2 Golfland Drive, ,Golflands,Auckland,2013,,-36.9217118,174.9127575
CC49619,New Zealand Care Society Incorporated,20B Cotter Street,, ,Greytown,5712,,-41.0872516,175.4480634
CC48093,Byte Charitable Trust,151 Cambridge Terrace, ,Christchurch Central,Christchurch,8013,,-43.5300905,172.6328345
CC48507,Fair Food,Unit 2, 624 Rosebank Road,Avondale,Auckland,1026,,-36.8739251,174.6693185
CC48811,Ardour Charitable Trust,14A Shaftesbury Street, ,Avonhead,Christchurch,8042,,-43.5139349,172.5605112
CC49567,The New Zealand Catalina Preservation Society Incorporated,PO Box 72527,, ,Papakura,2244,,-37.0623638,174.9478327
CC48527,St Christopher's Trust,20 Minnehaha Avenue,88 Harold Street,Takapuna,Auckland,0622,,-36.778866,174.7767185
CC48773,Jack Checkley Charitable Trust,21 Bells Road,RD 2, ,Blenheim,7272,,-41.5125328,173.9061662
CC48355,Tautoko Mai Sexual Harm Support Services Trust,Unit G,120 Hamilton Street, ,Tauranga,3110,,-37.6826274,176.1645341
CC48394,Seniornet Rotorua Incorporated,11 Wylie Street, ,Glenholme,Rotorua,3010,,-38.1542271,176.2520276
CC49587,Day By Day Christian Ministries Charitable Trust,Flat 1,5 Treagon Place,Papatoetoe,Auckland,2025,,-36.9777145,174.8347767
CC48327,Heart For Youth Charitable Trust,48A Cresta Avenue, ,Beach Haven,Auckland,626,,-36.7877164,174.6854963
CC48111,St. Thomas Aquinas School Parent Teacher Association,1 Church Street,, ,Winton,9720,,-46.1505162,168.3277315
CC48217,Fit Futures Charitable Trust,74 Howell Avenue, ,Riverlea,Hamilton,3216,,-37.8044051,175.3179136
CC48131,Takanini Community Church Property Trust,27 Fairview Avenue, ,Opaheke,Papakura,2113,,-37.0756732,174.9457337
CC48434,Sydenham Botanic Park Funding Trust,63 Grace Road, ,Tauranga South,Tauranga,3112,,-37.7062721,176.1631107
CC48076,Peria Assembly of God Trust Board,12 Sheffield Street,, ,Matamata,3400,,-37.8136892,175.7628948
CC50039,Tangata Atumotu Trust,28 Bealey Avenue, ,Christchurch Central,Christchurch,8013,,-43.5211561,172.6286736
CC49646,Oraka Aparima Runaka Holdings Limited,175 Palmerston Street,, ,Riverton,9822,,-46.3528777,168.0131096
CC48153,Chinese Christian Mission NZ Trust,20 Amersham Way, ,Manukau,Auckland,2104,,-36.9918819,174.8785492
CC49122,Auckland Tuhoe Society Incorporated,10 Tripoli Road, ,Panmure,Auckland,1072,,-36.9002565,174.8585045
CC48401,Word Of Truth Ministries ,6 Franshell Crescent, ,East Tamaki,Auckland,2013,,-36.9400662,174.9063301
CC48239,Cromwell Bike Park Incorporated,271 Bannockburn Road,RD 2, ,Cromwell,9384,,-45.0747581,169.1728672
CC48230,Life In Vacant Spaces Charitable Trust,6 Show Place, ,Addington,Christchurch,8024,,-43.5414,172.6033295
CC48695,Kia Ora FM 89.8 Trust,140 Maxwells Line, ,Awapuni,Palmerston North,4412,,-40.3791599,175.5842512
CC49126,Hibiscus Coast Orchid Society,26A Ormonde Drive,, ,Silverdale,0932,,-36.6143952,174.6684873
CC48744,Nga Tohunga o Te Moana a Toi,C/O GLENDA STEWART  213 Rewatu Road,RD 1, ,Whakatane,3191,,-37.9824015,176.9807685
CC48026,Adullam Humanitarian Aid Trust,20 Amersham Way, ,Manukau,Auckland,2104,,-36.9918819,174.8785492
CC48180,St John's School Parent Teacher & Friends Association,St John's School,87A Penzance Road,Mairangi Bay,Auckland,630,,-36.7379722,174.7426152
CC48038,Remarkable Theatre Incorporated,c/o Showbiz Queenstown,"29, Isle Street", ,Queenstown,9300,,-45.031159,168.65598
CC49332,Maori Women's Development Incorporated,78 Victoria Street, ,Wellington Central,Wellington,6011,,-41.2886977,174.7758166
CC49153,LEARNING ENVIRONMENTS NEW ZEALAND,2 Marston Street, ,Parnell,Auckland,1052,,-36.8503555,174.7783077
CC48331,Lightstream International Trust,Unit 6,71 Hingaia Road,Karaka,Papakura,2113,,-37.0743486,174.9231811
CC48277,Marshall Laing Music School Charitable Trust,39 Marshall Laing Avenue, ,Mount Roskill,Auckland,1041,,-36.9160369,174.7185671
CC48353,Rotary Club Of Invercargill South Inc Charitable Trust,19 King Street, ,Windsor,Invercargill,9810,,-46.3985678,168.3627925
CC48370,The Swedish School Association in the Bay of Plenty,41 Cook Street, ,Gate Pa,Tauranga,3112,,-37.709228,176.1427685
CC48117,Christ's Commission Fellowship New Zealand Trust,3 Cheval Drive, ,Totara Vale,Auckland,0629,,-36.7628183,174.7262095
CC49010,Rotorua Pacific Islands Development Charitable Trust,1334 Hinemoa Street,Rotorua 3010,Mangakakahi,Rotorua,3010,,-38.1382399,176.2459779
CC48265,Hawea Food Forest,286 Lakeview Terrace,RD 2,Lake Hawea,Wanaka,9382,,-44.6100739,169.2796822
CC48690,Envirohub Marlborough Charitable Trust,14 Auckland Street,Picton 7220, ,Picton,7220,,-41.2895816,174.0059388
CC48279,Marjorie Nightingale Singing Scholarship,78 Selwyn Place,, ,Nelson,7010,,-41.2754597,173.2854757
CC48515,Southern Cross Hospitals Palmerston North Partnership Limited,"Level 14, ANZ Centre",23-29 Albert Street,Auckland Central,Auckland,1010,,-36.8455854,174.7635318
CC48564,Circability Trust,203-271 Victoria Street West, ,Auckland Central,Auckland,1010,,-36.8479757,174.7551504
CC48867,FEDERATION DES ALLIANCES FRANCAISES DE NOUVELLE-ZELANDE INCORPORATED,4 Taunton Place, ,Stoke,Nelson,7011,,-41.3092507,173.2435505
CC48281,Family Builders International,47 Mount Roskill Road, ,Mount Roskill,Auckland,1041,,-36.9075719,174.7372922
CC49190,Nga Hau E Wha Maara Kai Charitable Trust,4 Bp Road,Taumarunui 3920, ,Taumarunui,3920,,-38.8819492,175.3028509
CC48802,WOOMB NZ Charitable Trust,9 Good Street,, ,Rangiora,7400,,-43.3026977,172.5939271
CC49013,Yaldhurst Tennis Club Incorporated,The Yaldhurst Domain, School Road,Yaldhurst,Christchurch,,,-43.5093255,172.5005456
CC49693,New Zealand Infant and Toddler Consortium,41 Arrowsmith Road,RD 2,Waitākere,Henderson,0782,,-36.8473266,174.5223868
CC48677,Waikato Ethnic Family Services Trust,14 Karen Crescent, ,Dinsdale,Hamilton,3204,,-37.8000903,175.2503228
CC48317,Rarangi Surf Life Saving Club Incorporated,Whites Bay,Port Underwood Rd,Rarangi,Blenheim,7273,,-41.3847701,174.057372
CC48779,Climax 1650 Steam Trust Board,41 Burrell Road,,Oneroa,Waiheke Island,1081,,-36.7937174,175.0196986
CC48490,New Zealand Secondary Schools Athletic Association Incorporated,664 Cameron Road, ,Tauranga South,Tauranga,3112,,-37.702167,176.1562515
CC49307,Te Runanga o Ngati Kea Ngati Tuara Charitable Trust,28 Tarewa Road,, ,Rotorua,3010,,-38.1318278,176.241308
CC48707,The Good Shepherd New Zealand Trust,Level 4,48 High Street,Auckland Central,Auckland,1010,,-36.8483896,174.766485
CC48632,Civic Property Pool,116 Lambton Quay,114 - 118 Lambton Quay,Wellington Central,Wellington,6011,,-41.2802795,174.7756779
CC48305,Martinborough Museum,7 Memorial Square,, ,Martinborough,5711,,-41.2189474,175.4602201
CC48358,Tax Policy Charitable Trust,45 Johnston Street,Level 7,Wellington Central,Wellington,6011,,-41.2827678,174.7763466
CC48774,Ellesmere Heritage Park Trust,1618 Leeston Road,RD 3, ,Leeston,7683,,-43.7553755,172.3128118
CC48563,Mauao Performing Arts Centre Charitable Trust,11 Totara Street,, ,Mount Maunganui,3116,,-37.6436188,176.1862743
CC48243,Rimu Home and School Committee,442 Rimu Road,RD 1, ,Invercargill,9871,,-46.4004097,168.5008858
CC48603,Komiti Marae Orakei Trust,59B Kitemoana Street,Orakei,Orakei,Auckland,1071,,-36.8489314,174.8223886
CC48489,Methven Netball Club Incorporated,156 Forest Drive,, ,Methven,7730,,-43.6271084,171.6356051
CC48933,South Canterbury Highland Pipe Band,2 Turnbull Street,Timaru 7910, ,Timaru,7910,,-44.4002265,171.2574723
CC48320,Shining Lights Trust Board,252 Otumoetai Road, ,Otumoetai,Tauranga,3110,,-37.681225,176.1356285
CC48778,Tuapeka Aquatic Centre Incorporated,6 Blue Spur Road,RD 3, ,Lawrence,9593,,-45.9052095,169.6823323
CC48449,The Breast Room In The House,South City Mall,Cargills corner,South Dunedin,Dunedin,9012,,-45.8927441,170.4998977
CC48328,Arrow Leadership NZ Trust,35B Gunns Crescent, ,Cashmere,Christchurch,8022,,-43.5729894,172.6379437
CC48304,St Barnabas Fendalton Trust,8 Tui Street, ,Fendalton,Christchurch,8041,,-43.5195438,172.5970853
CC48347,U3A Port Hills Incorporated,2 Calverton Place, ,Halswell,Christchurch,8025,,-43.575643,172.5540527
CC48445,Arborfield Sanctuary Charitable Trust,199 Shepherd Road,RD 5, ,Wellsford,975,,-36.2599194,174.5404237
CC48407,Community Education Trust Auckland,"Level 5, 55 Anzac Avenue", ,Auckland Central,Auckland,1010,,-36.8471204,174.7719067
CC49386,Historic Places Manawatu-Horowhenua Incorporated,231 College Street, ,West End,Palmerston North,4412,,-40.3678016,175.6028966
CC48871,The Korean Helpline,104 Riccarton Road, ,Riccarton,Christchurch,8041,,-43.5295835,172.6005877
CC48233,Our Lady Of Victories School Parents and Friends Association,106 Main South Road, ,Sockburn,Christchurch,8042,,-43.5360898,172.5591196
CC50032,ProCare Charitable Foundation,Public Trust Charities,"Level 8, 22 Willeston Street", CBD,Wellington,6011,,-41.2864564,174.7767067
CC49379,Whitford Forrest Archers Incorporated,52 Pearson Road,RD 1, ,Howick,2571,,-36.9400881,174.940087
CC48366,Jesus Calls New Zealand Trust,Suite 1,80 Carr Road,Mount Roskill,Auckland,1041,,-36.9123784,174.749196
CC48667,The New Zealand - Viet Nam Health Trust,55 Roseneath Terrace, ,Roseneath,Wellington,6011,,-41.2956675,174.8011154
CC48823,Waikawa Marae,210 Waikawa Road, ,Waikawa,Picton,7220,,-41.2763013,174.0296076
CC51051,The Lions Clubs New Zealand Charitable Trust,20 Baxter Street,Warkworth 0910, ,Warkworth,0910,,-36.3983125,174.6669847
CC48182,Rukuhia School Parent and Teacher Association (PTA),58 Rukuhia Road,RD 2, ,Hamilton,3882,,-37.8536061,175.2997439
CC48826,The Whau River Catchment Trust,36 Rathlin Street, ,Blockhouse Bay,Auckland,0600,,-36.9189204,174.7056295
CC48715,Izard Rodney College Trust,287 Rodney Street,, ,Wellsford,0900,,-36.2878549,174.5207526
CC48686,Geraldine Children Social Work Trust,5A Peel Street,, ,Geraldine,7930,,-44.090923,171.2424773
CC48853,Auckland Basketball Services Limited,"Sport Auckland House, Level 4","Gate B, Alexandra Park Function Centre, Greenlane West",Epsom,Auckland,1051,,-36.8923218,174.7762234
CC48359,Graeme Dingle Foundation Auckland,145 St George Street, ,Papatoetoe,Auckland,2025,,-36.9792089,174.8585238
CC48419,Bream Bay Community Support Trust,9 Takutai Place,Ruakaka 0116, ,Ruakaka,0116,,-35.8750208,174.4572608
CC48369,Mothers Helpers,200 Hardy Street,Nelson 7010,Waiatarua,Nelson,7010,,-41.2745312,173.2843713
CC48551,Holocaust Centre Of New Zealand Incorporated,80 Webb Street, ,Te Aro,Wellington,6011,,-41.2972244,174.7721522
CC48307,ACK WAIKATO CHURCH TRUST,61 Ascot Road, ,Chartwell,Hamilton,3210,,-37.7576103,175.2847728
CC48371,Emmanuels Mission Trust,Pharazyn Road,R D 7, ,Feilding,4777,,-40.1941807,175.6019979
CC48440,Te Mana O Ngati Rangitihi Charitable Trust,35 Heale Street,RD 4,Matata,Whakatane,3194,,-37.8888668,176.7579588
CC49407,Cobham Intermediate Parent Teacher Association Incorporated,294 Ilam Road, ,Burnside,Christchurch,8053,,-43.5107083,172.5845354
CC48373,Ellerslie Community Patrol Charitable Trust,127 Main Highway, ,Ellerslie,Auckland,1051,,-36.898222,174.8097961
CC48458,Kaipatiki Youth Development Trust,15 Chartwell Avenue, ,Glenfield,Auckland,0629,,-36.7839908,174.7325732
CC48606,Ngaio School Parent Teacher Association,Ngaio School,Abbot Street,Ngaio,Wellington,6035,,-41.2491214,174.775761
CC48261,The Methodist Church Of New Zealand Te Haahi Weteriana O Aotearoa Christchurch Central Parish - Parish ,309 Durham Street North, ,Christchurch Central,Christchurch,8013,,-43.5280658,172.6332384
CC48556,Maketu Ongatoro Wetland Society Incorporated,9 Whenuariri Place,RD 9,Maketu,Te Puke,3189,,-37.7603599,176.4632816
CC48718,City Park Community Patrol Incorporated,Flat 1,144A Riverlaw Terrace,Saint Martins,Christchurch,8022,,-43.5537609,172.6541334
CC48664,Kaingahoa Marae Mataraua,945 Mataraua Road,Kaikohe 0474,Te Puru,Kaikohe,0474,,-35.5024286,173.7656531
CC48415,Fatoaga O Keliso,15 Apple Orchard Way, ,Sunnyvale,Auckland,0612,,-36.901237,174.629902
CC48692,Matahuru Papakainga Marae Reservation,58B Harris Street,, ,Huntly,3700,,-37.5604634,175.1516362
CC48653,Rotorua Symphonic Band Incorporated,12 Garrick Place, ,Pukehangi,Rotorua,3015,,-38.1332704,176.201726
CC48842,Figure.NZ Trust,9541/17B Farnham Street, ,Parnell,Auckland,1052,,-36.8512528,174.7820388
CC48322,"Faith and Life Changing Ministries, Timaru Branch",11 Cains Terrace,, ,Timaru,7910,,-44.3964615,171.2550237
CC48595,Resource Recovery Devonport Trust,27 Lake Road, ,Devonport,Auckland,0624,,-36.8211767,174.7960297
CC48661,Waimate Community Garden Incorporated,172 High Street,, ,Waimate,7924,,-44.7285906,171.0422524
CC48656,Porirua Church of Christ,27A Mungavin Avenue,73 Kenepuru Drive,Ranui,Porirua,5024,,-41.1388275,174.8501702
CC48473,Wellington Light of Life Chinese Church,35 George Street, ,Stokes Valley,Lower Hutt,5019,,-41.1661784,174.9823254
CC48579,St Andrews Community Trust,85 Queen Street,, ,Waiuku,2123,,-37.252425,174.7305359
CC48691,The Burn Support Group Charitable Trust,16 Albion Road, ,Otahuhu,Auckland,,,-36.9396906,174.840895
CC48882,Ministry of Inspiration,23 Alma Street,, ,Nelson,7010,,-41.2738408,173.2864606
CC49131,Aotearoa Football Charitable Trust,5 Edmund Hillary Avenue,, ,Papakura,2110,,-37.0591621,174.9543076
CC49170,The Earle Manawatu/Rangitikei Creativity and Development Trust,Public Trust Tower,Level 2,22 Willeston Street,Wellington,6011,,-41.2864564,174.7767067
CC48666,Kapiti Coast Museum Incorporated,9 Elizabeth Street,, ,Waikanae,5036,,-40.8779579,175.0670777
CC48387,Twizel-Tekapo Community Vehicle Trust Board,Twizel Heartland Centre,Mt. Cook Street, ,Twizel,7901,,-44.2557497,170.0978533
CC48621,SADD Aotearoa - Students Against Dangerous Driving Charitable Trust,20 Viaduct Harbour Avenue,P O Box 5,Auckland Central,Auckland,1010,,-36.845762,174.7571772
CC48872,RJ & MI Ross No. 2 Charitable Trust,41A Merani Street, ,Narrow Neck,Auckland,0622,,-36.8090048,174.7959678
CC48468,The Wellington Breastfeeding and Parenting Trust,Flat 5,Erskine Mews,Island Bay,Wellington,6023,,-41.3336553,174.7771041
CC48478,Waipawa Primary School Whanau and Friends Association,6 Harker Street,, ,Waipawa,4210,,-39.9430721,176.5899706
CC49055,Third Space Trust,37 Oranga Avenue,Phoenix Apartments 135 Grafton Road,Onehunga,Auckland,1061,,-36.9099638,174.7987983
CC48517,Kidz Need Dadz Charitable Trust Bay Of Plenty (Incorporated),538 Fraser Street, ,Greerton,Tauranga,3112,,-37.7275593,176.141943
CC48459,R.E.K.A. Trust,88A Pahou Pa Rd,Whakatane 3120, ,Whakatane,3120,,-37.984218,176.9784882
CC48382,Serbian Orthodox Mission St Nicholas Trust,15 Highfield Place, ,Avonhead,Christchurch,8042,,-43.5180158,172.5616083
CC48460,Devonport RSA Poppy Day Trust,61 Victoria Road, ,Devonport,Auckland,624,,-36.830224,174.7976564
CC48492,Special Olympics Bay Of Islands Trust,PO Box 518,, ,Kaikohe,0440,,-35.4081392,173.7986091
CC48638,Vahefonua Tonga Methodist Mission Charitable Trust,636 Great South Road, ,Ellerslie,Auckland,1051,,-36.8998874,174.8051155
CC48463,Rotary Club Of Whangarei City Charitable Trust,14 Cliff Street, ,Onerahi,Whangarei,0110,,-35.7747254,174.3609732
CC48465,Fountain of Peace Children's Foundation New Zealand,159 Spey Street,Invercargill 9810, ,Invercargill,9810,,-46.4099653,168.352986
CC49350,Fale Pasifika O Aoraki Trust Society Incorporated,39 North Street,, ,Timaru,7910,,-44.4003302,171.250822
CC48462,Pioneer Basketball Club Incorporated,75 Lyttelton Street,Lyttleton,Somerfield,Christchurch,8024,,-43.5660982,172.6140486
CC48483,Methodist Church Samoa (New Zealand) Onehunga Parish,66 Alfred Street, ,Onehunga,Auckland,1061,,-36.9205264,174.7939224
CC48530,The Maureen Raison Charitable Trust,C/- Carter Atmore Law Ltd,"Level 3, 57 Symonds St",Grafton,Auckland,1010,,-36.8564989,174.7650976
CC48471,Manawatu Deaf Society Incorporated,55B Totara Road, ,Awapuni,Palmerston North,4412,,-40.3831067,175.5818467
CC48851,Seaward Downs Play Group,348 Kapuka North Road,RD 3,Oteramika,Wyndham,9893,,-46.4277068,168.6242754
CC48480,Ranichauri Eastwoodhill Trust,77 Austin Street, ,Onekawa,Napier,4110,,-39.4998208,176.8779544
CC48762,THE C G TATE CHARITABLE TRUST,c/- McGillivray Callaghan & Co.,P O Box 79123,Avonhead,Christchurch ,8446,,-43.5103164,172.5564539
CC48479,The Tonar Street Athletics Trust,85 Beach Haven Road, ,Beach Haven,Auckland,0626,,-36.7916004,174.6854663
CC48985,CAPITAL GYMNASTIC CLUB INCORPORATED,11 Hutchison Road,11 Hutchison Road,Newtown,Wellington,6021,,-41.309075,174.77288
CC48477,The Matahui Road School Foundation Trust,267A Wharawhara Road,RD 2,Tahawai,Katikati,3178,,-37.5728679,175.882343
CC49181,Thomas Neale Charitable Trust,42 Winger Crescent,, ,Kamo,112,,-35.6716404,174.3005977
CC48611,WELLINGTON MOUNTAIN BIKE CLUB INCORPORATED,70 Sefton Street, ,Wadestown,Wellington,6012,,-41.2614997,174.779968
CC49711,Whakatane Menz Shed Incorporated,30 Te Tahi Street,, ,Whakatane,3120,,-37.9787272,176.9842537
CC48973,College Rifles Badminton Club Incorporated,33 Haast Street, ,Remuera,Auckland,1050,,-36.8835891,174.8136197
CC48501,Thinking Matters New Zealand Foundation,42 Piata Street,,,Papamoa,3118,,-37.7297978,176.341929
CC48569,Live More Awesome Foundation,54 Hillcrest Road,, ,Tauranga,3110,,-37.6753475,176.1434764
CC48481,Picton Memorial Park Trust Incorporated,66 Wellington Street,, ,Picton,7220,,-41.2914687,174.0080532
CC49050,National Council of Women of New Zealand Incorporated,Level 4,Central House 26 Brandon Street,Wellington Central,Wellington,6011,,-41.2832069,174.7764169
CC48484,The Samoan Congregational Christian Church (Nelson) Trust Board,164 Panorama Drive, ,Enner Glynn,Nelson,7011,,-41.3145027,173.2492207
CC48475,The Fairlie Community Vehicle Trust,Heartlands Resource Centre,Main Street, ,Fairlie,7987,,-44.0977299,170.8288521
CC48869,Pahiatua School Community Association (PSCA),21 Albert Street,, ,Pahiatua,4910,,-40.451946,175.8391893
CC49127,Te Manawanui Trust,67 Staveley Avenue,Mount Roskill,Mount Roskill,Auckland,1041,,-36.9248112,174.7472367
CC48529,The Geraldine Academy of Performance & Arts Incorporated,79 Talbot Street,, ,Geraldine,7930,,-44.0929898,171.2454924
CC48504,New Life Charitable Trust Wellington,152 Main Street, ,Upper Hutt Central,Upper Hutt,5018,,-41.1243565,175.0725397
CC48711,The Heart Research Institute (NZ) Limited,c/- BDO New Zealand,"Level 1, Chartered Accountants House",50 Custom House Quay,Wellington,6143,,-41.28414046,174.77752960092323
CC48785,Horsham Downs School Parent Teacher Association Incorporated,4 Martin Lane,RD 1, ,Hamilton,3281,,-37.8031372,175.2607466
CC48499,Adult Conductive Education Trust,22 Brougham Street,RD 1,Addington,Christchurch,8024,,-43.5484722,172.6189364
CC48378,Voice of Christ Full Gospel Church (Otara),5 Hope Place, ,Otara,Auckland,2023,,-36.9527554,174.8715693
CC49859,Jean Wightman Trust,22 Willeston Street, ,Wellington Central,Wellington,6011,,-41.2864564,174.7767067
CC48649,St Joseph's School Education Trust,505 Kongahu Swamp Road,RD 3,Little Wanganui,Karamea,7893,,-41.341408,172.1015792
CC49476,The Voice Of Christ Full Gospel Church Avondale Auckland Trust,97A Sunnyside Road, ,Sunnyvale,Auckland,612,,-36.8994478,174.6393437
CC49211,Friends Of Rotoiti Trust,5 Range View Road,St Arnaud 7072, ,St Arnaud,7072,,-41.8034905,172.8577564
CC48898,Youth Encounter Ministries Trust,196 Roydon Downs Road,RD 9,Paengaroa,Te Puke,3189,,-37.86465,176.4247735
CC48491,Te Roopu Whakaruruhau O Nga Wahine Maori Incorporated,,,,,,,-40.900557,174.885971
CC48521,Arawa Park Community Trust,274 Fenton St,, ,Rotorua,3010,,-38.1489659,176.2540833
CC48585,Samoan Assemblies of God in New Zealand Incorporated - Bible College,38 Robertson Road, ,Favona,Auckland,2024,,-36.9555345,174.804562
CC49178,Lower Shotover Conservation Trust,90 Fitzpatrick Road,, ,Dalefield,9371,,-44.9831366,168.7304243
CC48997,The Common Unity Project,P O Box 31026, , ,Lower Hutt,5040,,-41.2095577,174.901028
CC48736,Kelly Tarlton's Marine Wildlife Trust,23 Tamaki Drive, ,Orakei,Auckland,1071,,-36.8480188,174.8177987
CC49109,The Puhinui Trust,723 Harrisville Road,RD 2,Pukekohe East,Pukekohe,2677,,-37.2021661,174.9492464
CC48633,"The Deeper Christian Life Ministry Trust, New Zealand",7 Vanni Lane, ,Pahurehure,Papakura,2113,,-37.0741816,174.9378184
CC49414,Waipukurau and District Returned Services Association Incorporated Trust Welfare,72 Racecourse Road,Waipukurau 4200, ,Waipukurau,4200,,-40.0018644,176.5452155
CC48494,Brydie Lauder Charitable Trust,10 The Rise, ,Mount Pleasant,Christchurch,8081,,-43.564601,172.7168204
CC48545,Waitaki High Old Boys' Association Incorporated,Waitaki Boys' High School,Waitaki Avenue, ,Oamaru,9400,,-45.0766959,170.9925751
CC48816,Jesus Love Presbyterian Church,165 Parkhurst Road, ,Parakai,Helensville,0830,,-36.6598649,174.4316471
CC48731,TE WHARE TU TAUA KI WAITAHA CHARITABLE TRUST,7 Clifton Street,, ,Little River,7591,,-43.8221232,172.7063288
CC48786,Greening the Rubble Trust,77 Marine Parade,,North New Brighton,Christchurch,8083,,-43.4937853,172.7257874
CC48676,HB Cricket Charitable Trust,Macinnes Pavilion, ,Nelson Park Jull St,Napier,4140,,-39.4983803,176.910171
CC48513,Manaaki Ora Trust,PO Box 1802,, ,Rotorua,3040,,-38.1366362,176.2518184
CC48741,Northern Wairoa Cricket Club Incorporated,24 Victoria Street,Dargaville 0310, ,Dargaville,0310,,-35.9432402,173.8683982
CC48506,Central Kids Trust,6 Glenshea Street,, ,Putaruru,3411,,-38.0530452,175.7782484
CC49403,Charisma Christian Ministries Trust,14 Spode Place, ,Henderson,Auckland,0612,,-36.8939716,174.6213194
CC48889,The Mount Albert Grammar School Community Swimming Pool Trust Board,1234 Great North Road, ,Point Chevalier,Auckland,1022,,-36.8708956,174.710177
CC48781,Weedons Cricket Club,Weedons Domain,Maddisons Rd,Weedons,Christchurch,,,-43.556222,172.4286601
CC48801,The Prue Blythe Memorial Trust,10 Webber Street,, ,Cambridge,3434,,-37.8713968,175.466762
CC50083,Iqra Academy,9 Budgen Street, ,Mount Roskill,Auckland,1041,,-36.9234717,174.7325029
CC48738,The Drawing of Heaven Church,26 West Harbour Drive, ,West Harbour,Auckland,0618,,-36.8235811,174.6282291
CC48554,Te Waipounamu Maori Cultural Council Incorporated,4 Otia Drive,, ,Richmond,7020,,-41.3431996,173.1730632
CC49971,Coptic Orthodox Church New Zealand Parish of St Mary and St Anthanasious Christchurch,290 Wooldridge Road,Avonhead,Harewood,Christchurch,8051,,-43.4839217,172.5681821
CC48601,The Memorial Oaks Committee,250 McKerrow Road, ,Rd110,Oamaru,9495,,-45.0965979,170.9714456
CC48512,New Plymouth Stroke Support Trust,Unit 99,95 Barrett Road,Whalers Gate,New Plymouth,4310,,-39.0852401,174.0361953
CC48928,The Filipino Chaplaincy Pastoral Council Wellington Archdiocese,169 Main Road, ,Tawa,Wellington,5028,,-41.1712358,174.8245499
CC48740,Volunteering Northland,Level 1,Civic Arcade,37-41 Bank Street,Whangarei,110,,-35.7251365,174.3191966
CC48704,C3 New Zealand Pacific Trust,Suite 1,27 Aviemore Drive,Highland Park,Auckland,2010,,-36.9018458,174.9048066
CC48651,Eden Christian Academy,131 Dominion Road,Tuakau 2121, ,Tuakau,2121,,-37.2530496,174.9619085
CC49253,Tuia Charitable Trust,11 South Road,, ,Waipu,0510,,-35.9860238,174.4483303
CC50388,Movement,355 Foster Road,RD 1,Waimauku,Kumeu,0891,,-36.7861802,174.4900358
CC48493,Moewhare Marae,296 State Highway 1,RD 12, ,Levin,5572,,-40.5870838,175.2941373
CC48881,Samoan Methodist Churches of Samoa (Otara Parish) in New Zealand,2 Blair Place, ,Otara,Auckland,2023,,-36.958198,174.8738199
CC48953,Empower Church Charitable Trust,117 Bell Road,RD 7,Papamoa,Te Puke,3187,,-37.7328493,176.3116106
CC49588,The New Zealand Cuban Festival Trust,40 Anzac Road, ,Gate Pa,Tauranga,3112,,-37.712144,176.1421894
CC48510,Wanaka Concert Society Incorporated,3 Sunrise Bay Drive,Wanaka 9305,Wānaka,Wanaka,9305,,-44.6950019,169.1106478
CC49113,Akarana Marine Sports Charitable Trust,The Landing,8 - 10 Tamaki Drive,Okahu Bay,Auckland,1071,,-36.8499907,174.8103012
CC48749,Mahanaim Trust,11 Elizabeth Street,, ,Matamata,3400,,-37.8114006,175.7694923
CC48733,Methodist Church Samoa New Zealand Botany Parish,634 Papakura-Clevedon Road,RD 2,Ardmore,Papakura,2582,,-37.035907,174.9978218
CC49185,Heilala Vanilla Foundation,37A Newnham Road,RD 4,Whakamarama,Tauranga,3174,,-37.6736804,176.056477
CC49071,Hutt Art Society Incorporated,9 Myrtle Street, ,Hutt Central,Lower Hutt,5010,,-41.2138722,174.9041335
CC49788,Omaui Tracks Trust Incorporated,C/- LLOYD ESLER  15 Mahuri Road,RD 9, ,Invercargill,9879,,-46.4291676,168.3024842
CC48974,St Peters College Hostel Charitable Trust,129 Kakapo Street,,,Gore,9710,,-46.1078202,168.9239671
CC48643,Futurecaster Trust,Flat 31,11 The Avenue,Albany,Auckland,0632,,-36.7238411,174.6907959
CC48784,Maori Association of Social Science Inc,Victoria University of Wellington,50 Kelburn Parade,Kelburn,Wellington,6012,,-41.288977,174.7674879
CC48608,Ruakohatu Charitable Trust,426 Te Moana Road,, ,Waikanae,5036,,-40.8804789,175.0554969
CC48819,Te Poho o Hinemihi Marae,316 Ruataniwha Road,Wairoa 4108, ,Wairoa,4108,,-39.029983,177.3761832
CC48531,InsideOUT Kōaro,"Level 3, Anvil House",138 Wakefield Street,Te Aro,Wellington,6011,,-41.2903521,174.7778385
CC49293,Paikea Whitireia Trust Maori Reservation ,80 Pa Road,RD 3,Whangara,Gisborne,4073,,-38.5599182,178.2170952
CC49201,Rangimarie Maori Arts & Crafts Society Incorporated,87 Cook Street, ,Marfell,New Plymouth,4310,,-39.0727866,174.0461026
CC49019,De Paul House Charitable Trust,92 Onewa Road, ,Northcote Point,Auckland,627,,-36.810883,174.7389869
CC48567,Spiritual Assembly of The Baha'is of Waitaki District,31 Kingdon Street, ,Newmarket,Auckland,1149,,-36.8656005,174.7766686
CC48516,Wish for a Smile charitable trust,20 Tennyson Street, ,Te Aro,Wellington,6011,,-41.29512,174.7819457
CC48565,Spiritual Assembly of The Baha'is of Tasman District,c/- 31 Kingdon Street, ,Newmarket,Auckland,1149,,-36.8656005,174.7766686
CC48514,Cheng Heng Temple Charitable Trust,5 Korcula Place, ,Avondale,Auckland,1026,,-36.8954647,174.6795665
CC48607,The Otago Law Practitioner's Benevolent Fund,265 Princes Street, ,Dunedin Central,Dunedin,9016,,-45.8780391,170.5017593
CC49116,Waipu Alumni Of District Education Trust WADE Trust,6 Argyle Street,, ,Waipu,510,,-35.9870676,174.4433008
CC49043,Maori Community Leaders Forum,250 Pages Road, ,Wainoni,Christchurch,8062,,-43.5207076,172.6985187
CC48992,Amberley Christian Church Trust,27 MacKenzies Road,RD 3,Waipara,Amberley,7483,,-43.0528063,172.7576466
CC48883,Music Innovation Trust Of Taranaki ,37 Vivian Street,New Plymouth 4310, ,New Plymouth,4310,,-39.060598,174.0724154
CC48921,Lloyd's Register International,70 St Johns Road, ,Saint Johns,Auckland,1072,,-36.8735043,174.8287243
CC50753,JMJ Christian Trust Board,1189 Whangaparaoa Road , ,Gulf Harbour,WHANGAPARAOA,0930,,-36.6089696,174.7835883
CC48868,Rawiri Residents Association Incorporated,1 Rata Vine Drive, ,Wiri,Auckland,2104,,-37.0040724,174.8898615
CC48562,Rites of Passage Foundation,156 Commercial Street,, ,Takaka,7110,,-40.8518616,172.8075996
CC48543,Taupo Primary School PTA,Tamamutu Street,, ,Taupo,,,-38.6877558,176.0801173
CC48377,New Zealand Fallen Heroes' Trust,18A Oakley Crescent, ,Hornby,Christchurch,8042,,-43.5549104,172.5365855
CC50091,Howick-Pakuranga Hockey Club Incorporated,Lloyd Elsmore Hockey Stadium,Lady Marie Dr,Pakuranga,Auckland,,,-36.9095797,174.9012227
CC49138,Te Puke Repertory Society Incorporated,Litt Park,Park Lane, ,Te Puke,3071,,-37.7933924,176.3163254
CC48865,Tennis Pakuranga Supporters' Charitable Trust,101 Pigeon Mountain Road, ,Half Moon Bay,Auckland,2012,,-36.8914358,174.9006545
CC49600,Howick Pakuranga Netball Centre Incorporated,2r Bells Road, ,Pakuranga Heights,Auckland,2010,,-36.9068484,174.9029128
CC48552,Taranaki Synthetic Turf Trust,C/- CMK,87 Regan Street,Stratford,Taranaki,4332,,-39.3384585,174.2826008
CC49069,Tapanui Primary School PTA,14 Sussex Street,, ,Tapanui,9522,,-45.9417404,169.259246
CC48548,ACK Tauranga Congregation Trust,134 Sixteenth Avenue, ,Tauranga South,Tauranga,3112,,-37.705834,176.1531984
CC48470,FATUGATITI PRESCHOOL INCORPORATED,Fatugatiti Preschool Inc.,82 Wyllie Road,Papatoetoe,Auckland,,,-36.9860801,174.8501281
CC48542,Come Bless The Lord Samoan Assembly of God,4C Chalfont Street, ,Mangere East,Auckland,2024,,-36.9656109,174.8190871
CC49031,Family Help Trust Foundation,Unit 5,31 Carlyle Street,Sydenham,Christchurch,8023,,-43.541268,172.6405722
CC48821,Pakuranga Outrigger Canoe Club Te Tahawai O Pakuranga Incorporated,45 Caspar Road, ,Papatoetoe,Auckland,2025,,-36.9769651,174.8789123
CC48724,Nga Rangatahi Toa Creative Arts Initiative,PO Box 56001,Dominion Road,Mount Eden,Auckland,1446,,-36.8935487,174.7453291
CC48850,Koraunui Marae Charitable Trust,146 Stokes Valley Road, ,Stokes Valley,Lower Hutt,5019,,-41.1705113,174.9812539
CC49278,Craigieburn Valley Ski Club Incorporated,State Highway 73,Cass, ,Christchurch,,,-43.5128351,172.4752704
CC48476,Auckland Evangelical Church Trust,80 Olsen Avenue,2 Gordon Road,Hillsborough,Auckland,1042,,-36.9168743,174.7527988
CC48584,The Vine House Trust Board,130 Point England Road, ,Point England,Auckland,1072,,-36.882542,174.86681
CC49712,Te Karanga Charitable Trust,Flat 2,20 Nottingham Street,Westmere,Auckland,1022,,-36.8552555,174.722291
CC50508,Alexandra Primary School Charitable Trust,151 Conroys Road ,Rd1, ,Alexandra,9391,,-45.2601435,169.3406409
CC49056,Otahuhu & Districts Highland Pipe Band Incorporated,25A Fort Richard Road, ,Otahuhu,Auckland,1062,,-36.9476933,174.8421312
CC48553,Beckenham School PTA,71 Sandwich Road, ,Beckenham,Christchurch,8023,,-43.5630233,172.6462877
CC48719,Lake Taupo Hospice Development Trust Board ,29 Huka Falls Road, ,Rangatira Park,Taupo,3330,,-38.672038,176.0755377
CC49366,Manurewa Neighbourhood Support Incorporated,50 Walpole Avenue, ,Hillpark,Auckland,2102,,-37.0141011,174.9001501
CC49314,Ngati Pahauwera Manaaki Trust,74 Queen Street,Wairoa 4108, ,Wairoa,4108,,-39.0346145,177.4213347
CC48645,Winton Skate Park Trust,224 Great North Road,, ,Winton,9720,,-46.1435773,168.3253238
CC48799,Deaf Sports New Zealand Incorporated,110B Hillside Road,,Papatoetoe,Auckland,2025,,-36.9873137,174.8434451
CC48940,Living Well Mataura Charitable Trust,16 Bridge Street,Mataura 9712,Mataura,Mataura,9712,,-46.1944496,168.8665337
CC49034,Tutaki Youth Incorporated Trust,88 Juliet Street,, ,Stratford,4332,,-39.3388041,174.2860398
CC48599,Dry July NZ Trust,42 Kerkwall Drive, ,Naenae,Lower Hutt,5011,,-41.2120419,174.9575274
CC48589,The Joyce Shanley Trust ,Public Trust Tower,Level 2,22 Willeston Street,Wellington,6011,,-41.2864564,174.7767067
CC48764,ISANA New Zealand Charitable Trust,1 Maxwells Line, ,Awapuni,Palmerston North,4412,,-40.3712896,175.5787943
CC48763,The Good Works Charitable Trust,252 Forrest Hill Road, ,Forrest Hill,Auckland,0620,,-36.7584224,174.7500797
CC48568,Ruatoria Volunteer Fire Brigade,190 Waiomatatini Road,Ruatoria 4032, ,Ruatoria,4032,,-37.8878967,178.3193968
CC48702,Akaroa Men's Shed Trust,PO Box 165,, ,Duvauchelle,7545,,-43.75032,172.932371
CC48588,Selwyn Parenting Network Incorporated,159 Trents Road,RD 6,Prebbleton,Christchurch,7676,,-43.5667881,172.4828502
CC48975,Benefit Education Advisory Service Incorporated,Anvil House,"Level 6, 138-140 Wakefield St",Te Aro,Wellington,6021,,-41.2903521,174.7778385
CC48757,Waitaki Community Patrol ,16 Severn Street,Oamaru 9400, ,Oamaru,9400,,-45.0980613,170.9686174
CC48848,Sumner Cricket Club Incorporated,35 Campbell Street, ,Sumner,Christchurch,8081,,-43.5787178,172.7616178
CC49704,Assist NZ Incorporated,38A Alford Street, ,Waterview,Auckland,1026,,-36.8780592,174.698691
CC48837,Synergy Community Trust,44 Portage Road, ,New Lynn,Auckland,600,,-36.9128443,174.6902557
CC48596,Autism Eden Trust,28 Lynbrooke Avenue,1 Clonbern Road,Blockhouse Bay,Auckland,0600,,-36.9243181,174.7127786
CC48610,Auckland Pipe Band College Trust Incorporated,39 Kopiko Road, ,Titirangi,Auckland,604,,-36.9353937,174.650099
CC49352,Japan Kauri Education Trust,5 William Pickering Drive, ,Rosedale,Auckland,0632,,-36.7519364,174.7048152
CC48609,Student Christian Movement Aotearoa Inc,98 St Heliers Bay Road, ,St Heliers,Auckland,1071,,-36.8546006,174.8603814
CC48574,Garden City Orchestra Incorporated,16 Camleigh Close,, ,Kaiapoi,7630,,-43.3758272,172.6513806
CC49284,BrooklynsLove Foundation,62 Bignell Street, ,Gonville,Wanganui,4501,,-39.9461239,175.0212521
CC48812,St Marys Home & School Association Incorporated,St Mary's School,901 Frederick Street,Mahora,Hastings,4120,,-39.6239427,176.847571
CC48697,The Hato Paora Trust Board,1314 Kimbolton Road,RD 7, ,Feilding,4777,,-40.151965,175.6565593
CC49012,Canterbury Community Gardens Association Incorporated,180 Smith Street,,Woolston,Christchurch,8062,,-43.5378538,172.6775156
CC49394,New Zealand Chinese Culture & Performing Arts Charitable Trust,Flat 3,170 Blockhouse Bay Road,Avondale,Auckland,0600,,-36.8979904,174.7018752
CC48845,David John And Maria Sher Charitable Trust Foundation ,Flat 2,41 Marine Parade, ,Mount Maunganui,3116,,-37.6362724,176.1863035
CC49769,ALLIANCE FRANCAISE DE HAMILTON INCORPORATED,Suite 4,"Reid House, 114 Alexandra St",Hamilton Central,Hamilton,3204,,-37.7884344,175.2823138
CC48890,Church by the Tracks Trust,29 Alpha Avenue, ,Strowan,Christchurch,8052,,-43.5084699,172.6067924
CC48913,THE FRONTIERS NEW ZEALAND TRUST  2012,4 Landon Way,Feilding 4702, ,Feilding,4702,,-40.2067719,175.5855125
CC48648,North Wellington SeniorNet Incorporated,Care Johnsonville Community Centre,3 Frankmore Ave, Johnsonville,Wellington,6037,,-41.2223053,174.8053436
CC49486,Auckland Islamic Trust (AIT),18 Farrelly Avenue, ,Mount Roskill,Auckland,1041,,-36.9025588,174.7273338
CC49344,NZ Mountain Film Festival Charitable Trust,17 Drake Place,RD 2,Lake Hawea,Wanaka,9382,,-44.6114684,169.2798521
CC48893,The Percy Vos Charitable Trust,29 Mount St John Avenue, ,Epsom,Auckland,1051,,-36.8818919,174.7800769
CC49093,Kirikiriroa Marae Reservation Charitable Trust,951 Wairere Drive, ,Hamilton East,Hamilton,3216,,-37.7931075,175.3069014
CC48679,Marist Alternative Education Limited,Unit 1,381 Great South Road,Ellerslie,Auckland,1051,,-36.8985788,174.8030724
CC48547,Bible League International New Zealand ,Unit 12,65 Paul Matthews Road,Rosedale,Auckland,0632,,-36.7512756,174.7139544
CC48772,Waihi School Trust Board,611 Temuka-Orari Highway,RD 26,Winchester,Temuka,7986,,-44.1955316,171.277252
CC48986,The House Of Breakthrough Trust Oamaru ,33 Wansbeck Street,Severn Street,South Hill,Oamaru,9400,,-45.103985,170.9643809
CC49524,Uiraroa Marae,C/- 237 Powell Road,R.D.3, ,Whakatane,3193,,-38.013404,176.7829711
CC50828,Elite Sports and Events Organisation,11a Tawai St,Trentham, ,Upper Hutt,0518,,-41.1357778,175.0380127
CC48766,Wellington Homeless Women's Trust,107 Manners Street, ,Te Aro,Wellington,6011,,-41.2914935,174.7775785
CC49101,Estate E E Flanagan,78 Selwyn Place,, ,Nelson,7010,,-41.2754597,173.2854757
CC49667,Immanuel Community Church,28 Arthur Road, ,Hillpark,Auckland,2102,,-37.0185423,174.9055301
CC48806,Dunedin Full Gospel Church,2 Preatwick Street, ,Maori Hill,Dunedin,9010,,-45.8566696,170.4982767
CC49130,Focus Paihia Community Charitable Trust,C/O PKF POUTSMA LEMON LTD,1 Williams Road, ,Paihia,200,,-35.2817317,174.0913756
CC49073,Hope Rising Farm Trust,122A Te Puroa Road,RD 1, ,Ngaruawahia,3793,,-37.6906494,175.133378
CC49808,Clutha Country Music Club Incorporated,145 Glenfalloch Road,RD 3,Lochindorb,Balclutha,9273,,-46.2773208,169.5680471
CC48780,Te Papapa Early Childhood Education Trust,219 Mount Smart Road,219 Mount Smart Road,Onehunga,Auckland,1061,,-36.9153289,174.799547
CC49018,Far North Radio and Sea Rescue Incorporated,409B Cable Bay Block Road,, ,Cable Bay,0420,,-35.0088053,173.5037796
CC48751,Aileen Drewitt Charitable Trust,C/O Perpetual Guardian,"Level 8, 191 Queen Street",Auckland Central,Auckland,1010,,-36.8485007,174.7651644
CC48682,The Huxster Mountain Bike Trust,99 Nayland Street, ,Sumner,Christchurch,8081,,-43.5723165,172.7642605
CC48723,NZ Korean Youth Community Trust ,28A Chalmers Street, ,Avondale,Auckland,600,,-36.901,174.6988044
CC48831,THE EDEN LIFE TRUST,14 Winscombe Street, ,Belmont,Auckland,622,,-36.8034641,174.7927868
CC48699,Continuing Education (Hamilton) Trust,205 Pukete Road, ,Pukete,Hamilton,3200,,-37.7373398,175.2373738
CC50247,Torere Reserves Trust,2220 State Highway 35, ,Torere,Opotiki,3197,,-37.9594041,177.4701367
CC48844,Waimumu Te Tipua Art & Craft Exhibition Incorporated,corner Glendhu and Waimumu Road,RD 4,Waimumu,Gore,9774,,-46.1182073,168.8960089
CC49254,Waimate District Charitable Foundation,C/- Community Link House,5 Glasgow Street, ,Waimate,7924,,-44.7342117,171.0455453
CC48709,Solicitors' Benevolent Fund,17 Whitmore Street," High Court Building, Kate Sheppard entrance",Wellington Central,Wellington,6011,,-41.2809682,174.7779137
CC48849,Lifezone Church Property Trust,7 Oak Lane, ,Judea,Tauranga,3110,,-37.6967927,176.1493221
CC49180,Trinity Broadcasting Network NZ Charitable Trust,13 Meeking Place, ,Halswell,Christchurch,8025,,-43.5698355,172.5712018
CC50008,Auckland Malayali Samajam Incorporated,PO Box 24526, ,Royal Oak,Auckland,1345,,-36.9106233,174.7695643
CC50212,Support for Development (SFD),124 Avonhead Road, ,Avonhead,Christchurch,8042,,-43.520139,172.562773
CC48776,Hawke's Bay (CEC) Trust,1017 Heretaunga Street East, ,Parkvale,Hastings,4122,,-39.6520692,176.8543634
CC48729,Revive Youth Trust,1A Beulah Avenue, ,Rothesay Bay,Auckland,0630,,-36.7234167,174.7506517
CC49198,Good Neighbour Aotearoa Trust,39B Burrows Street, ,Tauranga South,Tauranga,3112,,-37.7090755,176.1645266
CC48681,Te Whare Putea Charitable Trust,105 Beach Road,, ,Kaikoura,7300,,-42.3899211,173.6789348
CC48652,Eden Christian Academy (Franklin) Limited,131 Dominion Road,, ,Tuakau,2121,,-37.2530496,174.9619085
CC48918,Wellington Young Voices Incorporated,112A Weld Street, ,Wadestown,Wellington,6012,,-41.2653693,174.7713986
CC49287,Waiotapu Forest School Camp Trust,Waikokomuku Road,"Waiotapu Forest, SH 5", ,Rotorua,3078,,-38.358256,176.3689844
CC49722,Waikato Khmer Association Incorporated,3285 Ohaupo Road,RD 2, ,Hamilton,3282,,-37.8514781,175.3062939
CC48768,Stroma New Music Trust,13 Waitoa Road, ,Hataitai,Wellington,6021,,-41.3048426,174.7959606
CC49053,Hamilton Woodturners Incorporated,486 Whatawhata Road,RD 5,Temple View,Hamilton,3285,,-37.794068,175.2272106
CC48900,New Hope New Zealand ,44 Connell Street, ,Waverley,Dunedin,9013,,-45.8820703,170.5438499
CC48880,Rangatira Marae,66 Rangatira Road,Te Karaka 4022, ,Te Karaka,4022,,-38.4687845,177.8570484
CC48840,Field Trial Charitable Trust,C/- Eastfield Health,135 Tancred Street, ,Ashburton,7700,,-43.9062316,171.7481209
CC48770,Waikato Community School of Music Trust Board,University of Waikato, ,Hillcrest,Hamilton,3240,,-37.7819808,175.275023
CC48958,New Zealand Institute of Advanced Legal Studies,111 Wallace Loop Road,Koputaroa 5571,Kelburn,Koputaroa,5571,,-40.6046252,175.3559847
CC48876,Te Awamutu Community Menz Shed Incorporated,132 Raeburne Street,, ,Te Awamutu,3800,,-38.0048106,175.3054484
CC48769,Iglesia De Cristo Trust,19A Alexandra Street, ,Richmond,Christchurch,8013,,-43.5221566,172.6521549
CC48915,Matakohe Limestone Island Endowment Trust,191 Beach Rd, ,Onerahi,Whangarei,,,-35.7649896,174.3657364
CC49059,Safeguarding Children Initiative,142 Saxton Road East, ,Stoke,Nelson,7011,,-41.3290379,173.2204122
CC49006,Nga Iwi o Mokai Patea Services Trust,130 Hautapu Street,, ,Taihape,4720,,-39.6753851,175.7991153
CC49110,Nota Bene Incorporated,63 Pembroke Road, ,Northland,Wellington,6012,,-41.2764067,174.7591781
CC49067,"Mar Dionysius Indian Orthodox Church, Wellington, New Zealand",41 Endeavour Drive,,Whitby,Porirua,5024,,-41.1146794,174.908977
CC49843,Taupo Bike Park Incorporated,Unit 3,127 Tauhara Road,Tauhara,Taupo,3330,,-38.6816014,176.0946168
CC48959,Feed The Need Trust,108 Paremoremo Road, ,Lucas Heights,Auckland,0632,,-36.7364496,174.6731242
CC48761,Youth Activities Centre Kaitaia,6 Redan Road,Kaitaia 0410, ,Kaitaia,0410,,-35.1171032,173.2652768
CC49474,Leataata O Le Lumanai Samoa Trust,10 Novar Place, ,Point Chevalier,Auckland,1025,,-36.8711035,174.7140583
CC48790,Shoreline Church Trust,321 Fraser Street, ,Parkvale,Tauranga,3112,,-37.7158611,176.149061
CC49252,Whangawehi Catchment Management Group Incorporated,720 East Coast Road,RD 8 Wairoa, ,Hawkes Bay,4198,,-39.0351747,177.4181452
CC49080,Feilding Saturday Morning Netball,77 Pharazyn Street,, ,Feilding,4702,,-40.2105028,175.5850209
CC48792,Jardin Musical Trust,40 St Andrews Hill Road, ,Mount Pleasant,Christchurch,8081,,-43.557769,172.7146813
CC48807,New Zealand Olympiad In Informatics Incorporated,Villa 238,Summerset On Cavendish,Casebrook,Christchurch,8051,,-43.4736668,172.6062811
CC48965,Nga Tirairaka o Ngati Hine,2 Second Avenue,C/- Bowls Whangarei,Avenues,Whangarei,0110,,-35.7249201,174.3123579
CC48824,St Mary's Convent Chapel Charitable Trust,47 Clyde Street,51 Grey Street,Hamilton East,Hamilton,3216,,-37.790928,175.2945838
CC49212,Auckland Japanese Christian Church Trust,3 Ngaire Avenue, ,Epsom,Auckland,1051,,-36.8776443,174.7790006
CC48789,Dunedin Community Learning Centre Charitable Trust,433 Princes Street, ,Dunedin Central,Dunedin,9016,,-45.8806209,170.5002505
CC50357,Rongomai Sports and Community Trust,238 Te Irirangi Drive, ,Flat Bush,Auckland,2019,,-36.9706364,174.8993135
CC50031,Cater Plus Foundation,154 Galloway Street, ,Hamilton East,Hamilton,3216,,-37.7902509,175.300471
CC48885,United Church Of Tonga In New Zealand Trust Board,53 Chislehurst Street, ,Henderson,Auckland,612,,-36.9021845,174.623866
CC48948,Beneficiaries Advice Mount Albert Trust Board,704 New North Road, ,Mount Albert,Auckland,1022,,-36.8779613,174.7292359
CC49807,SOUTH INVERCARGILL URBAN REJUVENATION CHARITABLE TRUST ,262 Ness Street,South City Mall,Appleby,Invercargill,9812,,-46.4269224,168.3508648
CC48862,Connected Neighbourhoods Trust,214 Buckley Avenue, ,Hobsonville,Auckland,0616,,-36.7878477,174.6663684
CC48942,Te Wana Trust,39 The Terrace, ,Wellington Central,Wellington,6011,,-41.2799785,174.7755701
CC48968,ESNZ Eventing Canterbury Incorporated,982 Essendon Road,RD 1, ,Darfield,7571,,-43.5149146,172.1603526
CC49172,Otaki Players Society Incorporated,268 Mill Road,, ,Otaki,5512,,-40.7592433,175.1562917
CC48998,The Caritas Pro Vitae Gradu Charitable Trust,ACE International Trust (NZ) Limited,QB Studios/208 Ponsonby Road, ,Auckland,1101,,-36.8534065,174.7449487
CC48870,Tamatea Volunteer Rural Fire & Rescue Squad Incorporated,18 Lindsay Road,Waipukurau 4283, ,Waipukurau,4283,,-39.9867608,176.5567914
CC48875,Opiki Home And School Association,RD 4, ,Opiki,Palmerston North,4474,,-40.5129277,175.4523728
CC49007,Room to Read (New Zealand) Charitable Trust,89 The Terrace, ,Wellington Central,Wellington,6011,,-41.281702,174.7754685
CC49097,The Kennedys Ltd,8 Alfred Street, ,Auckland Central,Auckland,1010,,-36.8521283,174.7684468
CC48886,Te Rito Rodney Family Violence Prevention Project,20 Florence Avenue,Orewa 0931, ,Orewa,0931,,-36.585709,174.6922219
CC49008,The Enrich and Development Trust,62 Springhill Road, ,Mornington,Dunedin,9011,,-45.8862203,170.4765335
CC48713,Adele Goodfellow Charitable Trust,41A Merani Street, ,Narrow Neck,Auckland,0622,,-36.8090048,174.7959678
CC50271,Maramarua Golf Club (Incorporated),40 Golf Road,, ,Mangatawhiri,2471,,-37.2368738,175.1654346
CC48859,Huntley Charitable Trust,Public Trust Tower,Level 2,22 Willeston Street,Wellington,6011,,-41.2864564,174.7767067
CC48996,Taranaki Land Search and Rescue Incorporated,360 Henwood Road,RD 2,Hillsborough,New Plymouth,4372,,-39.0655084,174.149161
CC49195,Omakere School and Community Association (OSCA),46 Long Range Road,RD 1,Omakere,Waipawa,4271,,-40.0511916,176.7538099
CC49176,Auckland Citizens Advice Bureaux Incorporated,16 Commercial Road,, ,Helensville,0800,,-36.6791228,174.4495502
CC48896,Waimate Agricultural Trust,52 Queen Street,, ,Waimate,7924,,-44.7324087,171.0481132
CC48943,The Visual Impairment Charitable Trust Aotearoa (NZ) - VICTA (NZ),301 Moray Place, ,Dunedin Central,Dunedin,9016,,-45.8731578,170.5055366
CC48877,Hawkes Bay Youth Futures Trust,207 Lyndon Road East,, ,Hastings,4122,,-39.645284,176.8425438
CC50454,Heritage Taranaki Incorporated,5 Harris Street,, ,Waitara,4320,,-38.9945267,174.2419359
CC48894,Grace Baptist Church of Wanganui,1 Bignell Street, ,Gonville,Whanganui,4501,,-39.9472774,175.0289285
CC48938,Manawatu (CEC) Trust,PO Box 5519,Terrace End,Roslyn,Palmerston North,4441,,-40.3514708,175.6311211
CC48949,Otiwhiti Station Land Based Training Limited,191 St Hill Street,, ,Wanganui,4500,,-39.9318312,175.0471302
CC49161,Signals Pipes and Drums Incorporated,79 St Leonards Road, ,Mount Eden,Auckland,1024,,-36.8973088,174.7636209
CC49792,North Shore Branch of the NZ Society of Genealogists,2 Tamahere Drive, ,Glenfield,Auckland,0629,,-36.788804,174.711354
CC48752,Whai Maia Charitable Trust 1,230 Kupe Street,34 Mahuhu Crescent,Orakei,Auckland,1071,,-36.8506947,174.8230707
CC48753,Whai Maia Charitable Trust 2,230 Kupe Street, ,Orakei,Auckland,1071,,-36.8506947,174.8230707
CC49061,Manurewa Bread of Life (AOG),30 Secretariat Place, ,Randwick Park,Auckland,2105,,-37.0223124,174.91265
CC49060,Bryndwr Community Garden Incorporated,Morley Park, ,Bryndwr,Christchurch,8053,,-43.5067798,172.5857751
CC50559,Heaven on Earth Church of the Nazarene,6 Gospel Heights, ,Flat Bush,Auckland,2019,,-36.9855178,174.9076489
CC49340,Resonance Ensemble NZ Trust,127A Fendalton Road, ,Fendalton,Christchurch,8014,,-43.5199076,172.5984268
CC49163,Robert Algie Memorial Sports Trust,6 Wakelin Street,, ,Carterton,5713,,-41.0280569,175.5261484
CC49346,Mizpah Trust,8 Bond Crescent, ,Forrest Hill,Auckland,620,,-36.7719593,174.7490559
CC49188,'NAAD' CHARITABLE TRUST (NZ),Unit 3,39 East Tamaki Road,Papatoetoe,Auckland,2025,,-36.9681695,174.8614335
CC49425,JSM Help,170 Wangapeka West Bank Road,RD 2, ,Wakefield,7096,,-41.3417523,172.7621426
CC50192,Social Sector Innovation WBOP Charitable Trust,145 Seventeenth Avenue, ,Tauranga South,Tauranga,3112,,-37.7056183,176.150941
CC48902,Estate of Derrick James Osborne,Public Trust Tower,22 Willeston Street,Wellington Central,Wellington,6011,,-41.2864564,174.7767067
CC48935,The John Dixon Elliott and Dorothy Hoole Elliott Charitable Trust,"Level 2, 22 Willeston St",Public Trust Tower, ,Wellington,6011,,-41.2864564,174.7767067
CC49117,Wellington Korean Church Trust Board,75 Victory Avenue, ,Karori,Wellington,6012,,-41.2845444,174.7295297
CC49432,Ngati Wakaiti / Ngati Ruahine Charitable Trust,11A Surrey Grove, ,Parkvale,Tauranga,3112,,-37.7197804,176.1469543
CC49266,Ellesmere Community Vehicle Trust Board,165 Leeston Dunsandel Road,RD 2, ,Leeston,7682,,-43.7573371,172.2750059
CC48939,Eastern Bay of Plenty (CEC) Trust,42A Henderson Street,, ,Whakatane,3120,,-37.9594296,176.9669728
CC49065,Dunedin Curtain Bank Trust,174 Princes Street, ,Dunedin Central,Dunedin,9016,,-45.8768244,170.5019089
CC48937,Zimbabwe Rural Schools Library Trust,8 Climie Way, ,Trentham,Upper Hutt,5018,,-41.1306128,175.0367404
CC48916,Christchurch Transitional Architecture Trust,4 Ash Street, ,Christchurch Central,Christchurch,8011,,-43.5348415,172.6418298
CC49151,Takitimu Marae Waituhi,573 Lavenham Road,RD 2, ,Gisborne,4072,,-38.5784478,177.9038945
CC48841,Papawai Pa Trust,18 Pā Road,, ,Papawai,5794,,-41.0967177,175.4857495
CC48904,Across Ministries,32 Lenore Road, ,Favona,Auckland,2024,,-36.9538646,174.8125204
CC49550,New Zealand Retreat (Auckland) Limited,158 Avenue Road East, ,Otahuhu,Auckland,1062,,-36.9402455,174.8564326
CC48954,Teapot Summer School Trust,2 Kereru Street,, ,Waikanae,5036,,-40.8762398,175.0751341
CC48934,Southland (CEC) Trust,76 Turner Street,, ,Edendale,9825,,-46.3172106,168.7896418
CC50060,Lions Club of Waiareka Valley Charitable Trust,c/o Postal Delivery CT.,, ,Weston,9401,,-45.0980581,170.8526146
CC49219,Invercargill Thai Buddhist Charitable Trust,839 North Road,RD 6,Lorneville,Invercargill,9876,,-46.3481445,168.3480862
CC49164,New Zealand Youth Global Awareness Trust Board,Level 13,Davis Langdon House 49 Boulcott Street,Wellington Central,Wellington,6011,,-41.2874178,174.7740795
CC48909,Otago (CEC) Trust,21 Round Hill Road,RD 19D,Reidston,Oamaru,9492,,-45.1485129,170.8471484
CC49666,CSC Buying Group Limited,1902 Cambridge Road,, ,Cambridge,3434,,-37.8900544,175.452766
CC49275,New Zealand Korean School Trust,71 Saddleback Grove, ,Karori,Wellington,6012,,-41.2944891,174.7251797
CC48912,The Lake Memorial Charitable Trust,C/O Perpetual Guardian,"Level 8, 191 Queen Street", Auckland CBD,Auckland ,1010,,-36.8485007,174.7651644
CC49107,Marist St Pats Shamrock Foundation,32 The Terrace, ,Wellington Central,Wellington,6011,,-41.2801264,174.7750409
CC49279,International Pure Bhakti Yoga Trust,11 Pleasant View Road, ,Panmure,Auckland,1072,,-36.8978924,174.8530262
CC48925,Society of St Vincent de Paul in New Zealand - West Coast Area Council,Level 1,LG Building,35 Victoria Street,Wellington,6000,,-41.2871726,174.7770623
CC49424,Women of Worth Charitable Company Limited,27 Kings Crescent,Pinehaven,Hutt Central,Lower Hutt,5010,,-41.2080636,174.9091786
CC49245,Te Puu Ao Trust,351 Kamo Road, ,Whau Valley,Whangarei,0112,,-35.6929062,174.309286
CC49583,Ko Tuwharetoa Te Iwi Charitable Trust,33 Turanga Place,Turangi 3334, ,Turangi,3334,,-38.9944795,175.8013466
CC49624,New Zealand Centre for Global Studies Charitable Trust Board,Unit G04,2 Finch Street,Morningside,Auckland,1022,,-36.8730591,174.7337008
CC49310,Historic Places Tairawhiti Incorporated,173 Palmerston Road,Gisborne 4010, ,Gisborne,4010,,-38.6649333,178.0271181
CC49191,CANTERBURY ROYAL COMMONWEALTH SOCIETY CHARITABLE TRUST,54 Urunga Avenue, ,Strowan,Christchurch,8052,,-43.5058836,172.6099292
CC48910,Connections Community Trust,46 Rothwell Street, ,Redruth,Timaru,7910,,-44.4186406,171.2450692
CC49610,The Giltrap Trust,"Level 2, 119 Great North Road",Grey Lynn, ,Auckland,1021,,-36.8619719,174.7496128
CC48908,Greater Waikato (CEC) Trust,133 Newcastle Road, ,Nawton,Hamilton,3200,,-37.7881537,175.235311
CC48827,Gyeojassi Church & Centre,15 Paulange Place, ,Pakuranga Heights,Auckland,2010,,-36.9126336,174.8910647
CC49136,Te Ramaroa Trust,114 Hardy Street,Nelson 7010, ,Nelson,7010,,-41.2744333,173.2818733
CC48927,Te Tuareka O Manurewa Trust,3 Rupu Way, ,Favona,Auckland,2024,,-36.9577141,174.81076
CC49095,Christ Enabled Communities Charitable Trust,56 Endeavour Drive, ,Whitby,Porirua,5024,,-41.1160031,174.908114
CC49549,The EPIC Foundation Limited,,,,,,,-40.900557,174.885971
CC48977,Alps 2 Ocean Charitable Trust,78 Reservoir Road, ,Oamaru North,Oamaru,9400,,-45.0799157,170.9702843
CC48945,The Diabetes Wellington Charitable Trust,138 Wakefield Street, ,Te Aro,Wellington,6011,,-41.2903521,174.7778385
CC50088,Jin-Gang-Dhyana Wang Xin De Foundation (New Zealand) Trust,8 Chale Place, ,Somerville,Auckland,2014,,-36.9097477,174.9376469
CC48919,CCCS Panmure Youth Trust,123 Mount Wellington Highway, ,Mount Wellington,Auckland,1060,,-36.9043487,174.8410314
CC48941,The Foundation for Mobility Assistance Dogs,Unit C,13-15 Collard Place,Henderson,Auckland,0610,,-36.8537683,174.634258
CC48976,The Waiheke Recreation Centre Trust,11 Donald Bruce Road,11 Donald Bruce Road,Surfdale,Waiheke Island,1081,,-36.8001919,175.0285116
CC49003,Wellington Heritage Multiple Unit Preservation Trust,65 John Sims Drive, ,Broadmeadows,Wellington,6035,,-41.2324218,174.7939364
CC48951,Trail Fund New Zealand Incorporated,31 Wisteria Grove, ,Maungaraki,Lower Hutt,5010,,-41.2062635,174.8843852
CC48980,John and Muriel Perpetual Charitable Trust,56 Queens Drive, ,Hutt Central,Lower Hutt,5010,,-41.2105024,174.9031561
CC49691,Tairawhiti Multicultural Council Incorporated,393 Palmerston Road,, ,Gisborne,4010,,-38.659008,178.0192437
CC49125,Friends of Resthaven Foundation Trust,6 Vogel Street,, ,Cambridge,3434,,-37.89071,175.4564928
CC49530,Parkside Playcentre,35 Harper Street,,Parkside,Timaru,7910,,-44.4041348,171.2421524
CC49147,Duncan Bay Residents Association Incorporated,PO Box 1090,, ,Nelson,7040,,-41.2741421,173.2847004
CC50132,Hamilton Community Men's Shed Trust,39 Berkley Avenue, ,Hillcrest,Hamilton,3216,,-37.8034519,175.3293705
CC50348,Western Districts Hockey Club Incorporated,Hockey Pavilion - Avondale College,"Gate 3, Rosebank Road",Avondale,Auckland,,,-36.8942001,174.7004557
CC48981,Hector Hospital Trust,300 Richmond Road,809 Mount Eden Road,Grey Lynn,Auckland,1021,,-36.8560278,174.7319644
CC48978,"Tawa RSA ""Poppy Fund"" Trust",89 Oxford Street, ,Tawa,Wellington,5028,,-41.1650908,174.8278421
CC49105,Te Anau Volunteer Fire Brigade,30 Luxmore Drive,, ,Te Anau,9600,,-45.4165968,167.7190998
CC49762,West Harbour Arts Charitable Trust Board,365 Aramoana Road,Deborah Bay 9082, ,Deborah Bay,9082,,-45.793054,170.6466374
CC48979,Karl Heinz Reipen Trust,53 Brougham Street,New Plymouth 4310, ,New Plymouth,4310,,-39.059191,174.0736423
CC48984,St Michael's Catholic School Parent Teacher Association,St Michael's School,6 Beatrice Road,Remuera,Auckland,1050,,-36.872761,174.784418
CC48982,Kapiti Living Without Violence Charitable Trust,5 Sheffield Street,, ,Paraparaumu,5032,,-40.9053792,175.0007238
CC48983,City Pathway Trust,429 Queen Street, ,Auckland Central,Auckland,1010,,-36.8573516,174.7611466
CC48999,The Passchendaele Society Incorporated,Unit 303,27 Gillies Avenue,Newmarket,Auckland,1023,,-36.8708619,174.7739094
CC48987,Mussel Reef Restoration Trust,C/-SIMPSON GRIERSON   ATTN: MICHAEL WOOD  LUMLEY CENTRE,88 Shortland Street,Auckland Central,Auckland,1010,,-36.846306,174.7692924
CC50604,Mangawhai Artists Incorporated,45 Moir Street,Mangawhai 0505, ,Mangawhai,0505,,-36.1263981,174.5743535
CC49062,Onemana Voluntary Rural Fire Force Inc,PO Box 286,, ,Whangamata,3643,,-37.2071289,175.8715589
CC49154,Presbyterian Bureau Services Trust Board,Ground Floor,275 Cuba Street,Te Aro,Wellington,6011,,-41.2967194,174.7739625
CC49004,Goodman Fielder Cares Trust,2-8 Nelson Street,8 Nelson Street,Auckland Central,Auckland,1010,,-36.8458025,174.7611496
CC49077,Gujarati Samaj New Zealand Incorporated,"Post Box No. 15144,", ,New Lynn,Auckland,600,,-36.9089749,174.6775009
CC49766,French Bay Yacht Club Incorporated,Bottom of Otitori Bay Road & Valley Road, ,Titirangi,Auckland,,,-36.9490492,174.6653739
CC49123,Life Church Hanmer Springs Trust ,138 Rippingale Road,, ,Hanmer Springs,7334,,-42.5282834,172.8207097
CC50121,Paremata Plimmerton Netball Club Incorporated,Netball Clubrooms,Ngatitoa Domain,Mana,Porirua ,5024,,-41.1380517,174.8472141
CC49173,MenzShed Dannevirke Incorporated,40 Denmark Street,Dannevirke 4930, ,Dannevirke,4930,,-40.2105979,176.0992182
CC49049,The Seventh Day Sabbath & Advent Fellowship,212E Newell Road,RD 3,Tamahere,Hamilton,3283,,-37.8297069,175.3315904
CC49020,Chatham Islands Asset Holdings Limited,Owenga Road,, ,Chatham Islands,,,-44.0274405,-176.3616173
CC49179,The Bobby Stafford-Bush Foundation,19 Norwood Road, ,Bayswater,Auckland,0622,,-36.8171935,174.771634
CC49129,Food with Love Mission New Zealand Charitable Trust,9 Matau Close,, ,Te Kauwhata,3710,,-37.4010322,175.1560885
CC49032,Estate of Robert Lennard MacGillivray,C/O NZ GUARDIAN TRUST,"Level 8, 191 Queen Street",Auckland Central,Auckland,1010,,-36.8484773,174.7651347
CC49033,Complex Care Group Trust,202 Grenada Street,Mount Maunganui 3116,Ellerslie,Mount Maunganui,3116,,-37.681951,176.2394636
CC49072,Westlakers Incorporated,Westlake Boys' High School,30 Forrest Hill Road,Forrest Hill,Auckland,620,,-36.7771425,174.7492617
CC51206,West Coast Technology Education Trust,1A Guinness Street,Greymouth 7805, ,Greymouth,7805,,-42.4497152,171.2106395
CC51196,Keys of the Kingdom Ministries - Life in the Spirit Fellowship International Trust Board,26 Dolbel Place, ,Mangere East,Auckland,2024,,-36.9669271,174.8114625
CC51232,Movement Art Practice Limited,76 Hawdon Street, ,Sydenham,Christchurch,8023,,-43.5432718,172.6391525
CC51233,Whau Coastal Walkway Environmental Trust,208 West Coast Road, ,Glen Eden,Auckland,0602,,-36.9105273,174.6521946
CC51173,Taitokerau Education Trust,28 Mt Pleasant Road, ,Raumanga,Whangarei,0110,,-35.746545,174.309361
CC51306,Summer of Technology Limited,2 Raukawa Street, ,Strathmore Park,Wellington,6022,,-41.3282988,174.8177221
CC51289,Agape Society of New Zealand Incorporated,11 Stratford Place, ,Huntington,Hamilton,3210,,-37.7356482,175.2817025
CC51377,Glenorchy Heritage Museum Group Incorporated,33 Argyle Street,Glenorchy 9372, ,Glenorchy,9372,,-44.8492174,168.3847686
CC51101,Islamic Ahl-ul-Bayt Foundation Of New Zealand,27 Ben Lomond Crescent,,Pakuranga Heights,Auckland,2010,,-36.9149443,174.899199
CC50020,Czech and Slovak Club Tauranga Incorporated,6 Redhaven Place,,Bethlehem,Tauranga,3110,,-37.6924936,176.1171716
CC49831,Eunice Brown Charitable Fund,110 Vogel Street,Level 5,Dunedin Central,Dunedin,9016,,-45.880199,170.5026989
CC49729,Tātai Whetū Foundation,99 Wards Road,RD 1,Waikuku,Kaiapoi,7691,,-43.3041411,172.6651087
CC50414,Auckland Deaf Christian Fellowship,C/O  Arran Court, 85 McLeod Road,Te Atatu South,Auckland,0610,,-36.8768605,174.643966
CC49823,Aasthika Bhaktha Sangeerthana Samajam Charitable Trust,67 Seaview Road, ,Remuera,Auckland,1050,,-36.8679321,174.786657
CC49697,The Friends of Renwick Museum and Watson Memorial Library Society Incorporated,58 High Street,, ,Renwick,7204,,-41.5076207,173.8277873
CC50453,FIANZ Holdings Limited,7-11 Queens Dr, ,Lyall Bay,Wellington,6241,,-41.3204233,174.7939812
CC49670,Hopevale Trust,LEVEL 2,18 Woollcombe Street, ,Timaru,7910,,-44.3991098,171.2549653
CC49642,E L and J B Sanderson Cerebral Palsy Trust ,C/O Perpetual Guardian ,"Level 8, 191 Queen Street",Auckland Central,Auckland,1010,,-36.8485007,174.7651644
CC49653,Whangarei Youth Space Trust,Cafler Park,Water Street, ,Whangarei,0110,,-35.725207,174.3166449
CC50361,"The Hutt, Wellington, Kapiti Fire Brigades' Sub Association",24 Russell Road, ,Wainuiomata,Lower Hutt,5014,,-41.2468042,174.9491778
CC50240,CHRISTCHURCH HIGH SCHOOL OLD BOYS RUGBY FOOTBALL CLUB INCORPORATED,10 Riccarton Avenue, ,Christchurch Central,Christchurch,8011,,-43.5291655,172.6173886
CC49655,Community Colleges Of New Zealand Ownership Trust,140 East Belt,Rangiora 7400,Rangiora,Rangiora,7400,,-43.2965088,172.5995228
CC49800,Sola Power Throwing Academy,141 Whites Line East, ,Waiwhetu,Lower Hutt,5010,,-41.2241404,174.9160186
CC49639,Tourette's Association New Zealand,94 Parton Road, ,Papamoa Beach,Papamoa,3118,,-37.7113868,176.3134095
CC49751,Toku Mapihi Maurea Whanau Tautoko Incorporated,137 Silverdale Road, ,Hillcrest,Hamilton,3216,,-37.7886238,175.3239416
CC49811,Korean Scholarship Trust,PO Box 8022, ,Riccarton,Christchurch,8440,,-43.5292126,172.6051852
CC49680,Auckland Christian Mandarin Glory Church Trust,10 Dana Place, ,Somerville,Auckland,2014,,-36.9132502,174.9255281
CC49749,Woodville Volunteer Fire Brigade,Ormond Street,, ,Woodville,4920,,-40.3395593,175.8673679
CC49771,Canterbury Direct Investments Limited,4 Hazeldean Road, ,Addington,Christchurch,8024,,-43.541761,172.6160203
CC49724,Rātā Foundation Limited,4 Hazeldean Road, ,Addington,Christchurch,8024,,-43.541761,172.6160203
CC50053,Te Whare o Kenehi,1415 Hinemoa Street,Rotorua 3010,Rotorua,Rotorua,3010,,-38.1376391,176.2436764
CC49641,Invercargill Christadelphian Ecclesia Charitable Trust,28 Jed Street,, ,Invercargill,9810,,-46.4115096,168.3566692
CC49858,The Waitac Trust,70 Don Buck Road, ,Massey,Auckland,0614,,-36.8545784,174.6118011
CC49684,New Testament Church Incorporated,15 Mission View Drive, ,Northpark,Auckland,2013,,-36.9159127,174.9219546
CC49662,Albany Senior High School Enterprise Trust,536 Albany Highway, ,Albany,Auckland,632,,-36.7303625,174.6965161
CC50041,PIHMS Student Association Incorporated,4 Henwood Road,RD 2, ,New Plymouth,4372,,-39.0362206,174.1416936
CC49951,Ngatiawa Iwi,PO Box 64,, ,Paraparaumu,5254,,-40.9164743,175.0054932
CC49865,Wilderness Canoe Trust,1230 Takaka-Collingwood Highway,RD 2,Onekaka,Takaka,7182,,-40.7513088,172.7129961
CC50210,Brydone Community Centre Incorporated,2 Brydone Glencoe Road,Brydone 9774, ,Brydone,9774,,-46.2560295,168.8069148
CC49702,Wakatipu High School Foundation,Level 1,13 Camp Street, ,Queenstown,9300,,-45.0319521,168.6624715
CC49703,Rotary Club of Wellington Eureka! Trust,32 Melrose Road, ,Island Bay,Wellington,6023,,-41.3372257,174.7792767
CC49956,Queenstown Arts Society Incorporated,PO Box 132,, ,Queenstown,9348,,-45.0314371,168.6624761
CC49815,Nga Parirau Matauranga Charitable Trust,3527 Russell Road,RD 4, ,Hikurangi,0184,,-35.5954906,174.2856745
CC49647,Tauranga Woodcrafters Guild Incorporated,171 / 52  Condor Dtrive, ,Pyes Pa,Tauranga,3112,,-37.7452178,176.129202
CC49719,Moores Reserve Combined Sports Facility Trust,43 Gerrard Road,, ,Winton,9720,,-46.1430798,168.3118159
CC49739,The Dame Sister Mary Leo Foundation,Floor 7,57 Symonds Street,Grafton,Auckland,1010,,-36.8566329,174.7651046
CC50047,Parihaka Network - Ngā Manu Kōrihi Ōtautahi Trust,77 Fairfield Way,, ,Rolleston,7614,,-43.5970071,172.365404
CC51149,New Zealand Association for Research in Education Incorporated,,,,,,,-40.900557,174.885971
CC49650,The Disabled Snowsports Foundation,150 Letts Gully Road,RD 3,Letts Gully,Alexandra,9393,,-45.2258775,169.4048897
CC49732,FROMMS Trust,399 Makara Road,RD 2,Makara,Karori,6972,,-41.2682543,174.705265
CC49809,Al Rasool Foundation of Waikato,,,,,,,-40.900557,174.885971
CC49785,New Zealand Doctors Orchestra Board,88 Heaton Street, ,Strowan,Christchurch,8052,,-43.5116468,172.6147319
CC49846,Rotoehu Ecological Trust,18 Wharetoroa Drive,RD 4,Rotoiti Forest,Rotorua,3074,,-38.0537592,176.4517
CC50341,Welbourn Home & School Association,Arawa Street, ,Welbourn,New Plymouth,4312,,-39.0714081,174.092073
CC49877,St Albans Catholic School Parent Teachers Association,49 Rutland Street, ,Saint Albans,Christchurch,8014,,-43.5075749,172.6282418
CC49810,Hawksbury Christian Fellowship,19 Truby King Drive,Karitane 9471, ,Karitane,9471,,-45.6161316,170.6358529
CC50131,Algoritmi Educational Trust,46 Stoddard Road, ,Mount Roskill,Auckland,1041,,-36.9063801,174.7314142
CC49836,Inglewood District Health Trust,C/- FINTAX,28 Brown Street, ,Inglewood,4330,,-39.157754,174.204588
CC49783,Rinchen Jungdan Dongrum Gyal Foundation,485 Hill Street,, ,Richmond,7020,,-41.3614752,173.1772436
CC49734,Tupoho Investments Limited,PO Box 4386,, ,Wanganui,4541,,-39.9325588,175.0510577
CC49735,Pukekohe Community Action Charitable Trust,43 Queen Street,, ,Pukekohe,2120,,-37.2022961,174.9008101
CC50078,Te Puke Tigers Rugby League Club Incorporated,17 Brown Terrace,, ,Te Puke,3119,,-37.7857292,176.3215723
CC50051,The Living Fountain Church,124 Warspite Avenue, ,Waitangirua,Porirua,5024,,-41.1354174,174.8785813
CC49683,Taranaki (CEC) Trust,29 Lawry Street, ,Blagdon,New Plymouth,4310,,-39.0652219,174.0468705
CC49742,South Otago Heritage Society Incorporated,298 Union Street,, ,Milton,9220,,-46.1112315,169.9699926
CC49746,Mount Olive Assembly of God Trust Board,7 Clyro Place, ,Mangere East,Auckland,2024,,-36.9611712,174.8156803
CC49747,The Routeburn-Dart Wildlife Charitable Trust,1 Arthurs Point Road,RD 1, ,Queenstown,9371,,-44.9875595,168.6721288
CC50153,Salem Mission Charity of New Zealand Incorporated,9 Glencoe Place, ,Nawton,Hamilton,3200,,-37.7822575,175.2288145
CC49926,Tauranga Girls College Rowing Club Incorporated,296 Devonport Road,, ,Tauranga,3110,,-37.6964429,176.1656083
CC49750,The World Sunshine Church,8 Alice Place, ,Hillcrest,Auckland,0627,,-36.7884713,174.7345762
CC49799,Te Huingawaka Marae,c/o Postal Centre, ,Kaingaroa Village,Rotorua,3015,,-38.1445987,176.2377669
CC50150,CCC Vision Trust,57 Hinemoa Street,, ,Paraparaumu,5032,,-40.9124543,175.0114077
CC50130,The Paraparaumu Beach Golf Foundation Charitable Trust,376 Kapiti Road, ,Paraparaumu Beach,Paraparaumu,5032,,-40.892008,174.9830002
CC49982,Asor Trust,733-735 Whangaparaoa Road, ,Stanmore Bay,Whangaparāoa,0930,,-36.6369389,174.748891
CC50257,Islamic Community Aid Relief Education,Flat 2,89 Glendale Road,Glen Eden,Auckland,602,,-36.9171425,174.649035
CC49753,Invercargill Elim Community Church Trust,96 Elles Road, ,Georgetown,Invercargill,9812,,-46.4197978,168.3616406
CC49757,Wellington Land Search and Rescue Incorporated,19 Kings Crescent," Suite 6, Tawa Community Centre",Hutt Central,Lower Hutt,5010,,-41.2078444,174.9086497
CC49756,Maranatta Assembly Of God Church Trust,4 John Davis Road, ,Mount Roskill,Auckland,1041,,-36.9092636,174.7238368
CC49801,Derek Prince Ministries New Zealand Trust,38 Hawdon Street,, ,Christchurch,8023,,-43.54544,172.6391032
CC49802,Neuroendocrine Cancer New Zealand,34 Montmere Avenue, ,Te Atatu Peninsula,Auckland,0610,,-36.8470374,174.6472014
CC49866,JEREMY NATHAN LIBRARY TRUST,LVL 13,41 Shortland Street,Auckland Central,Auckland,1010,,-36.8470031,174.7677706
CC49895,Rotary Club of Invercargill Projects Limited,20 Don Street,Invercargill 9810, ,Invercargill,9810,,-46.4105739,168.3486639
CC50831,Takapau School Parent Teacher Associaton,Charles Street, ,Takapau,Central Hawkes Bay,,,-40.0261831,176.3468149
CC49868,Wandersearch Auckland Charitable Trust,PO Box 302063,North Harbour, ,Auckland,751,,-36.748445,174.6998527
CC49944,Natureland Wildlife Trust,Hounsell Circle, ,Tahunanui,Nelson,7011,,-41.281475,173.2443163
CC49821,Revolution Church,442 Tuam Street, ,Phillipstown,Christchurch,8011,,-43.5357324,172.655112
CC49814,JCRCM Trust,13C Thornhill Place, ,Sockburn,Christchurch,8042,,-43.5340216,172.5429959
CC50127,The Salt and Light Ministries Trust,18 Lori Lane,, ,Coopers Beach,0420,,-34.9947786,173.5105331
CC50243,Ruby Coast Initiative Trust,101A Aranui Road,, ,Mapua,7005,,-41.2508854,173.0917706
CC49828,All Things In Common Project,371 Old Te Aroha Road,RD 1,Okauia,Matamata,3471,,-37.8234102,175.8688491
CC49832,Rick Rudd Foundation,8 Bates Street,, ,Wanganui,4500,,-39.9312669,175.0561373
CC49923,Onslow College Foundation,c/- Onslow College,Private Bag 13906,Johnsonville,Wellington,6440,,-41.2303268,174.7984028
CC50785,NEW PLYMOUTH FULL GOSPEL CHURCH (ASSEMBLIES OF GOD),41B Lismore Street,Strandon, ,NEW PLYMOUTH,4312,,-39.0594544,174.1009248
CC50199,Virtuoso Strings Charitable Trust Board,Unit 2,73 Kenepuru Drive,Kenepuru,Porirua,5022,,-41.1487663,174.8363216
CC51111,Tuhirangi Marae,2449 State Highway 12,RD 3,Waimā,Kaikohe,0473,,-35.4878845,173.5874702
CC50028,Victoria University of Wellington Law Students' Society (Incorporated),"Victoria UniversityFaculty of Law, 15 Lambton Quay", ,Pipitea,Wellington,6011,,-41.2783999,174.7791036
CC49920,The Jelas Foundation,195 Universal Drive,404 Great North Road,Henderson,Auckland,0610,,-36.8802135,174.6371269
CC49883,Macky Unitarian Trust,66 Greys Avenue, ,Auckland Central,Auckland,1010,,-36.854317,174.7613972
CC49854,The Eden Garden Charitable Trust,32 Kingsley Street, ,Westmere,Auckland,1022,,-36.8532902,174.7264795
CC49851,Blenheim Korean Full Gospel Church (Assembly of God) Trust Board,3 Alana Street, ,Witherlea,Blenheim,7201,,-41.5379722,173.953208
CC49911,Mavis Corkill-Hepworth Charitable Trust,195 High Street,, ,Eltham,4322,,-39.4291243,174.2992477
CC49879,Di Buchan Environmental Trust,12 Te Harawira Street,, ,Otaki,5512,,-40.7488499,175.1424364
CC49853,Waipa Community Facilities Trust,3 Selwyn Lane,, ,Te Awamutu,3800,,-38.007527,175.3257356
CC49860,Boyle Village Conservation Group,12 Ellesmere Street, ,Marshland,Christchurch,8083,,-43.4785242,172.6686603
CC50046,Waiuku & District Community Workshop Trust,5 Hosking Place,, ,Waiuku,2123,,-37.2458878,174.7476648
CC50136,Cust School Parent Teacher Association Incorporated,473 Earlys Road,RD 1, ,Cust,7471,,-43.3119104,172.3809459
CC49987,Elijah Ministries Oceania Charitable Trust,Ranfurly Court,Islington Street,Kawerau ,Kawerau,3127,,-38.0859704,176.702418
CC50113,Poppycock Trust,81 Hokonui Drive,, ,Gore,9710,,-46.0914643,168.9440263
CC49913,Wyndham Districts Toy Library Incorporated,24 Redan Street,Wyndham 9831, ,Wyndham,9831,,-46.3276805,168.848191
CC50079,Tu Tangata Maraenui Trust,2B Terrace Lane, ,Hospital Hill,Napier,4110,,-39.4868966,176.9088958
CC50062,Kiwiwatch Community Patrol Charitable Trust ,221 Pukete Road, ,Pukete,Hamilton,3200,,-37.736325,175.2362984
CC50058,Christian City Church Palmerston North,77 Stanley Avenue,, ,Palmerston North,4414,,-40.3415752,175.618577
CC49884,Guthrie-Smith Tutira Limited,BROWN WEBB RICHARDSON LIMITED,111 Avenue Road East, ,Hastings,4122,,-39.641101,176.8457394
CC50327,Infoxchange,"Level 4, Building A, BDO Centre",4 Graham Street,Auckland Central,Auckland,1010,,-36.846931,174.7590736
CC50116,Te Araroa Volunteer Fire Brigade,51 POHUTU ROAD,PO Box 27, ,Te Araroa,4050,,-37.6354916,178.369198
CC49916,Geoscience Dream Trust,124 Montreal Street, ,Sydenham,Christchurch,8023,,-43.5414797,172.6309442
CC50213,Hi Well Charitable Foundation,6 Te Kea Place, ,Rosedale,Auckland,0632,,-36.7504894,174.7038943
CC50405,Waitara Alive Incorporated,97 Mould Street,, ,Waitara,4320,,-38.9988425,174.2233091
CC49993,The Shirley Evangelical Trust,5 Flaxgrove Place, ,Parklands,Christchurch,8083,,-43.4723422,172.7031803
CC50492,The Cheviot Historical Records Society Incorporated,18 Cadman Street,, ,Cheviot,7310,,-42.8104848,173.2719964
CC49901,K and E Grace Global Mission Inc,7 Clifford Square,, ,Featherston,5710,,-41.1173903,175.3290084
CC49957,Roimata Marae,220 Hiwarau Road,RD 2, ,Waiotahi Valley,3198,,-38.033337,177.1282222
CC49918,Mayfair Theatre Charitable Trust,Mayfair Theatre,100 King Edward Street,South Dunedin,Dunedin,9012,,-45.8926951,170.4983672
CC49900,Paraparaumu RSA Poppy Fund Trust,32 Marine Parade, ,Paraparaumu Beach,Paraparaumu,5032,,-40.8937175,174.9796711
CC50220,Terere Marae Maori Reservation,Terere Pa Road,Opotiki 3122, ,Opotiki,3122,,-38.0122705,177.2871025
CC50076,The New Zealand Cat Foundation,99 Trigg Road,RD 1, ,Kumeu,0891,,-36.7756315,174.5283832
CC49980,Piopio Community Sports Incorporated,Aria Rd,R D 2, ,Piopio,3970,,-38.513053,175.0089317
CC50066,Tamariki and Youth of Manukau Trust,45 Aronia Way, ,Goodwood Heights,Auckland,2105,,-36.9980384,174.8985695
CC49919,MENZSHED NEW ZEALAND Incorporated,17 Lakehouse Crescent,, ,Richmond,7020,,-41.3517514,173.180483
CC49906,Hillcrest High School Rowing Club Inc,C/- Hillcrest High School,Masters Avenue,Hillcrest,Hamilton,3216,,-37.7936421,175.3255943
CC50755,The Stokes Valley RSA Trust Fund,21 Hawthorn Crescent, ,Stokes Valley,Lower Hutt,5019,,-41.1711512,174.9843012
CC50002,The Board of the Dunedin Writers and Readers Festival,41 Mornington Road, ,Balaclava,Dunedin,9011,,-45.8907533,170.4696317
CC50048,Heritage South,50 Dee Street,Invercargill 9810,,Invercargill,9810,,-46.4111421,168.3470457
CC49981,Room-Simmonds Charitable Trust,C/O Perpetual Guardian,"Level 8, 191 Queen Street",Auckland Central,Auckland,1010,,-36.8485007,174.7651644
CC49932,Iona Parents and Friends Association Incorporated,C/- IONA COLLEGE,Private Bag 1000, ,Havelock North,4157,,-39.6702241,176.8771552
CC49950,Community Arts and Circus Trust New Zealand (CACTNZ),4 Athol Place,,Ravensbourne,Dunedin,9022,,-45.864393,170.5582371
CC50158,Ekalesia Fakapotopotoga Kelisiano Tuvalu i Aukilani Charitable Trust,40 Kirrie Avenue, ,Te Atatu South,Auckland,0610,,-36.8719978,174.6414194
CC50185,Kirva Trust,22 Boulcott Street, ,Wellington Central,Wellington,6011,,-41.288105,174.7741485
CC50475,Kapatiran Prayer Fellowship,14 Rosina Street,Clouston Park,Upper Hutt,Wellington,5018,,-41.1179908,175.0824923
CC50427,Tasman Community Trust Incorporated,6 Williams Road,RD 1,Tasman,Upper Moutere,7173,,-41.1955285,173.0557966
CC50467,Buller Area Grey Power Association Incorporated,39A Queen St,, ,Westport,7825,,-41.7495896,171.6009903
CC51040,Heart Connexions Charitable Trust,2 Okohaka Avenue,, ,Glenbrook,2681,,-37.1575831,174.7095547
CC49948,Archer-Smith Charitable Trust,Public Trust Tower,22 Willeston Street,Wellington Central,Wellington,6011,,-41.2864564,174.7767067
CC50115,Patutahi Volunteer Fire Brigade,17 Bigg St,PO Box 111, ,Patutahi,4045,,-38.6238094,177.8876322
CC50077,O'Keeffe Education Trust,1 Dumfries Road,, ,Tokoroa,3420,,-38.2312467,175.881407
CC49937,Ignited Hearts Ministries,79 Upper Waiwera Road,RD 1,Puhoi,Silverdale,0994,,-36.5492946,174.6443413
CC50290,Aera Foundation,PO Box 164,Shortland Street,Auckland Central,Auckland,1140,,-36.8470308,174.7701181
CC50043,Kaiapoi Community Garden Trust,Heywards Road,RD 2,Clarkville,Kaiapoi,7692,,-43.4175075,172.6043798
CC49941,Rachel's Vineyard (NZ) Trust,1285 Fergusson Drive, ,Brown Owl,Upper Hutt,5018,,-41.1075543,175.0976878
CC49963,The Harry Barker Sports Facilities Trust,17 Kipling Road,, ,Te Karaka,4022,,-38.4658808,177.8628443
CC50082,Mana Tree Aid Foundation,24 Lyndhurst Street, ,Awapuni,Gisborne,4010,,-38.662556,178.0044298
CC50054,Minds for Minds Trust,17 Burwood Crescent, ,Remuera,Auckland,1050,,-36.8621109,174.7986205
CC49977,Medical Prize Charitable Trust,7 Cockle Lane, ,Waimairi Beach,Christchurch,8083,,-43.4829655,172.721079
CC49984,Te Ara Pae Trust,276 High Street,, ,Hawera,4610,,-39.5876293,174.2773804
CC50021,Assembly of God Church of Samoa Auckland,143 Naylors Drive, ,Mangere,Auckland,2022,,-36.9798074,174.7967576
CC50080,Waitaha Hauora Charitable Trust,54 Jellicoe Street,, ,Te Puke,3119,,-37.7848854,176.3287253
CC49939,Robotics Education NZ Trust,81 Oakwood Avenue, ,Maryhill,Dunedin,9011,,-45.8917184,170.4796368
CC49967,Marlborough Decorative & Fine Arts Society Incorporated,124 Matthews Lane,RD 3,Rapaura,Blenheim,7273,,-41.4927952,173.8922396
CC49973,Gate Global Ministries Trust ,97 Flat Bush School Road, ,Flat Bush,Auckland,2016,,-36.9738326,174.9145621
CC49929,The Child Protection Otago Trust,7 Delta Street, ,Belleknowes,Dunedin,9011,,-45.8708925,170.4805651
CC50372,Hannah Sport And Culture Association Incorporated,44 Portage Road,New Lynn,New Lynn,Auckland,0600,,-36.9128443,174.6902557
CC49972,Kotahitanga Charitable Trust,37 East Tamaki Road,RD 1,Papatoetoe,Auckland,2025,,-36.9681281,174.8613651
CC50328,Adventure For Good Charitable Trust,31 Haruru Falls Road,, ,Haruru,0204,,-35.2788247,174.0504694
CC49986,Maunu Garden Project Charitable Trust,276 Whangarei Heads Road,RD 4,Tamaterau,Whangarei,0174,,-35.7614377,174.3866166
CC49969,Pauanui Community Menz Shed,23 Centreway,Pauanui 3579, ,Pauanui,3579,,-37.0231528,175.8605618
CC49928,Hawera High School Charitable Trust,64 Victoria Street,Hawera 4610, ,Hawera,4610,,-39.5868695,174.2812997
CC50421,Mo'ui Lelei Health and Wellness Charitable Trust Incorporated ,Mo'ui Lelei Charitable Trust Inc,6a Tamar Place,Nawton,Hamilton,3200,,-37.7818232,175.2336366
CC50017,Aorere College Foundation,Aorere College,Portage Road,Papatoetoe,Auckland,2025,,-36.9823895,174.8327342
CC50029,Youth Voices Action (YVA) Incorporated,"c/- The Historic Village, 159 17th Avenue West", , Tauranga South,Tauranga,3110,,-37.7045373,176.1485378
CC49976,Mararoa Parent Teacher Association,2373 Te Anau Mossburn Highway,RD 2, ,Te Anau,9672,,-45.5450341,167.8950784
CC50662,Manu Tute Charitable Trust,33A Carey Street, ,Maeroa,Hamilton,3200,,-37.7770407,175.2564808
CC49991,Rotary River Pathways Trust,251 Farm Road,RD 4, ,Waipukurau,4284,,-40.0273717,176.5831137
CC49931,Orphan Kids charity (OKC),101A Aranui Road,, ,Mapua,7005,,-41.2508854,173.0917706
CC49922,Featherston Menz Shed Incorporated,50 Fox Street,, ,Featherston,5710,,-41.1171038,175.3267123
CC49997,ETHIOPIAN ORTHODOX TEWAHEDO DEBREGENET ST. MARY'S CHURCH (IN EXILE) INCORPORATED,26D Portage Road, ,New Lynn,Auckland,0600,,-36.9064482,174.6908751
CC49914,Napier RSA Welfare Trust,34 Vautier Street, ,Napier South,Napier,4110,,-39.4941257,176.917919
CC49983,Link Pathway Trust,c/- Rick Edmonds, ,62 Moenui Bay,Picton,,,-41.2954812,174.0028153
CC50366,I Love Avondale,1855 Great North Road, ,Avondale,Auckland,1026,,-36.8941719,174.6962063
CC49962,Northland Proprietors' Trust,25 Hillcrest Road,, ,Kaikohe,405,,-35.405796,173.7924773
CC49943,Turangawaewae Trust Board,24 River Road,Ngaruawahia 3720, ,Ngaruawahia,3720,,-37.6625786,175.1531506
CC49989,J H Ranch Trust Board,Level 1,130 St Georges Bay Rd,Parnell,Auckland,1052,,-36.8506829,174.7820317
CC50001,Ngati Pahauwera Commercial Development Limited,74 Queen Street,, ,Wairoa,4108,,-39.0346145,177.4213347
CC49966,The Donald Paterson Educational Trust,c/- Macalister Mazengarb ,PO Box 927, ,Wellington ,6140,,-41.2831056,174.7761781
CC50859,Taranaki Kidz Kartz and Pony Trust,11 Hunter Street,, ,Hawera,4610,,-39.5893365,174.2661034
CC49992,SUNMOK CHURCH TRUST,36B Kingsview Road, ,Mount Eden,Auckland,1024,,-36.8874414,174.7565264
CC49965,The Pamela Paterson Educational Trust,c/- Macalister Mazengarb,PO Box 927, ,Wellington ,6140,,-41.2831056,174.7761781
CC50734,Hearing Research Foundation of New Zealand Trust Board,C/O Perpetual Guardian,"Level 8, 191 Queen Street", ,Auckland,1010,,-36.8485007,174.7651644
CC50303,LUME Network,17B Sunshine Avenue,, ,Paraparaumu,5032,,-40.9074772,175.0113583
CC49994,New Zealand Tree Crops Association Incorporated,327A Whangarata Road,RD 4, ,Tuakau,2694,,-37.2616186,174.9772402
CC49979,Maungaturoto Opportunity Shop 2013 Charitable Trust,149 Hurndall Street West,Maungaturoto 0520, ,Maungaturoto,0520,,-36.1102826,174.3536455
CC50771,Voice of the Martyrs,,,,,,,-40.900557,174.885971
CC50126,Diversity Counselling New Zealand,"Vickery house, Level 1, 113", Alexandra street,Hamilton Central,Hamilton,3204,,-37.7887537,175.2822383
CC50770,Friends of Otorohanga College Sports Committee,C/- Vianni Ward Otorohanga College,Bledisloe Avenue, ,Otorohanga,3900,,-38.1792884,175.2062999
CC50071,Drop Deep NZ Trust,72B Gladstone Road,,Northcote,Auckland,0627,,-36.8074417,174.7397799
CC50449,QuizEd Trust,35 Wyndham Road, ,Pinehaven,Upper Hutt,5019,,-41.1593716,175.0094537
CC50004,Kiwi Glynn Foundation Trust,205 Durham Street South, ,Christchurch Central,Christchurch,8011,,-43.5371545,172.6334416
CC50063,Get Kids Active Charitable Trust,109 Tuwharetoa Street,, ,Taupo,3330,,-38.6901981,176.0751855
CC50450,Whakatane Touch Association Charitable Trust,28C Barry Avenue,Whakatane 3120,Whakatāne,Whakatane,3120,,-37.95018,176.983368
CC49999,Dance Therapy NZ,"Onehunga Community Centre, 83 Church Street", ,Onehunga,Auckland,1061,,-36.9231014,174.7842694
CC50655,Historic Clyde Incorporated,16 Naylor Street,Clyde 9330, ,Clyde,9330,,-45.1843286,169.317757
CC50107,Prima Volta Charitable Trust,49 Tennyson Street, ,Napier South,Napier,4110,,-39.4894469,176.9171416
CC50044,Association of Friends of the Cathedral Grammar School Incorported,2 Chester Street West, ,Christchurch Central,Christchurch,8013,,-43.5278673,172.6286678
CC50024,Reti Philanthropic Foundation,17 Rust Avenue,, ,Whangarei,110,,-35.7230098,174.3168939
CC50068,Rock of Ages Samoan (Assembly of God),346 Pakuranga Road, ,Pakuranga Heights,Auckland,2012,,-36.9008257,174.898394
CC50277,Leukaemia & Blood Cancer Endowment Fund,6 Claude Road,"Level 13, 191 Queen Street",Epsom,Auckland,1023,,-36.8944777,174.7752978
CC50014,Otago Southland Diabetes Research Trust,C/O Perpetual Guardian,"Level 8, 191 Queen Street",Auckland CBD,Auckland,1010,,-36.8485007,174.7651644
CC50040,THE BOYS HUT TRUST,25 Himikera Avenue, ,Avondale,Auckland,1026,,-36.8918779,174.7024
CC50034,The Wanaka Watersports Facility Trust,51 Wanaka-Mount Aspiring Road,Wanaka 9305,Maori Hill,Wanaka,9305,,-44.700381,169.1195987
CC50010,Cooper Family Charitable Foundation,LEVEL 2,130 Quay Street,Auckland Central,Auckland,1140,,-36.8441047,174.7691521
CC50216,Light and Salt Charitable Trust,27 Fairfax Avenue, ,Northcote,Auckland,0627,,-36.8122502,174.7365
CC50225,Long Story Short Charitable Trust,30A Eleventh Avenue,, ,Tauranga,3110,,-37.7005137,176.163727
CC50204,Akaroa Health Limited,130 Kilmore Street, ,Christchurch Central,Christchurch,8040,,-43.527066,172.63782
CC50052,Cobham Oval Trust,79 Okara Drive,, ,Whangarei,110,,-35.7357793,174.3307739
CC50975,Carlaw Heritage Trust,PO Box 112234, ,Penrose,Auckland,1642,,-36.9096939,174.8145237
CC50320,Whangarei Men's Shed Incorporated,47A Kauika Road West, ,Avenues,Whangarei,0110,,-35.7265999,174.3080213
CC50202,Canterbury Regional Basketball Foundation,34 Allen Street, 50 Victoria Street,Christchurch Central,Christchurch,8011,,-43.5252531,172.6321197
CC50049,Auckland Primary Principals Trust Board,181A Wallace Road, ,Mangere Bridge,Auckland,2022,,-36.9554395,174.7827728
CC50036,DermNet New Zealand Trust,145 Great South Road, ,Greenlane,Auckland,1051,,-36.8872589,174.789203
CC50331,Rotorua and District Justices of the Peace Association Incorporated,57 McDowell Street, ,Springfield,Rotorua,3015,,-38.1604655,176.2321756
CC50984,Rotary Club of Waikato Sunrise Charitable Trust,P.O. Box 9087,, ,Hamilton,,,-37.78197802, 175.27502315313882
CC50356,Wairoa Rangers Rugby Football Club Incorporated,C/O Graeme Sexton,"38 Clevedon-Kawakawa Road, RD 5",Clevedon,Papakura,2585,,-36.988305,175.0411585
CC50089,Braid Incorporated,22 Somerset Drive,RD 1, ,Oxford,7495,,-43.2782267,172.1891992
CC50272,Glenavy School Community Bus Trust,315A Georgetown-Pukeuri Road,RD 15K,Pukeuri,Oamaru,9494,,-45.0136015,171.0039116
CC50104,The Archibald Baxter Memorial Trust,55 Evans Street, ,Opoho,Dunedin,9010,,-45.8541367,170.5286551
CC50420,Safe Turangi,Safe Turangi,PO Box 121, ,Turangi,3334,,-38.9885773,175.8086335
CC50084,Kawerau Fitness Community Trust,13 Forbes Place,, ,Kawerau,3127,,-38.0899819,176.6929543
CC50313,The Greenhithe Primary School Parent Teacher Association,Isobel Rd, ,Greenhithe,Auckland,0632,,-36.7757321,174.6783429
CC50258,Hagar Humanitarian Aid Trust,10A Nazareth Avenue, ,Middleton,Christchurch,8024,,-43.5440324,172.5803708
CC50148,Napier and Hastings Samoan Assembly of God Early Childcare Centre Incorporated,190 Riverbend Road,Marewa,Meeanee,Napier,4110,,-39.5206636,176.9011679
CC50232,ECHO Walking Festival Incorporated,90 Seddon Street,, ,Waihi,3610,,-37.3906789,175.842334
CC50842,Affirm Council Trust Board,14 Rakino Avenue, ,Manly,Whangaparaoa,0930,,-36.6396818,174.7560586
CC50285,Umoja Migrants Services New Zealand,11 Railside Avenue, ,Henderson,Auckland,0612,,-36.8796991,174.6315118
CC50391,Generous Ventures Trust,7 Dixon Street, ,Te Aro,Wellington,6011,,-41.2924153,174.7783326
CC50426,Sonia's Musikgarten Foundation Board,RAINEY COLLINS  Level 16,171 Featherston Street,Wellington Central,Wellington,6011,,-41.2844491,174.7765307
CC50093,Torch of the Nations Ministries NZ Trust,64D Friesian Drive, ,Mangere,Auckland,2022,,-36.9729492,174.8075444
CC50205,Wantwood Community Room Preservation Society,51 Church Lane,RD 1,Wairau Valley,Blenheim,7271,,-41.5555902,173.5360948
CC50255,Sanctuary of Grace Church Rotorua,8B Ruihi Street, ,Victoria,Rotorua,3010,,-38.1429941,176.2485115
CC50100,Every Nation Ministries,13A McRae Road, ,Mount Wellington,Auckland,1060,,-36.9080904,174.8354199
CC50183,Auckland Spanish Congregation of Jehovah's Witnesses,3 Hepburn Street, ,Freemans Bay,Auckland,1011,,-36.8575355,174.7499595
CC50608,Hosanna Dannevirke Baptist Church,331 High Street,Dannevirke 4930, ,Dannevirke,4930,,-40.1959078,176.1108056
CC50790,Cromwell Bowling Club Incorporated,50 Alpha Street,Cromwell 9310, ,Cromwell,9310,,-45.0465033,169.2128287
CC50099,Marlborough Readers & Writers Charitable Trust,31 Severne Street, ,Yelverton,Blenheim,7201,,-41.5129605,173.9292055
CC50173,The Cannons Creek Youth Charitable Trust,Freedom House,174 Bedford Street,Cannons Creek,Porirua,5024,,-41.1424292,174.865957
CC50110,Te Reanga Ipurangi - Otaki Education Trust,2 Scott Avenue, ,Otaki Beach,Otaki,5512,,-40.7434933,175.1126073
CC50106,NZ German Shorthaired Pointer Rescue Charitable Trust,24 Laura Street,, ,Lumsden,9730,,-45.741225,168.4452559
CC50282,Anglican Communications Limited ,123 Carlton Gore Road, ,Newmarket,Auckland,1023,,-36.8653899,174.7766623
CC50118,Reformed Church of Oamaru Trust Board,4 Eden Street,, ,Oamaru,9400,,-45.0967,170.9730885
CC50151,Safer North Community Trust,87 Gunn Road,RD 2,,Matamata,3472,,-37.847758,175.7153754
CC50152,Sailability Whanganui Trust,6 Tulloch Street, ,Saint Johns Hill,Wanganui,4500,,-39.9107851,175.0417808
CC51035,Bay of Plenty Inservice Training Trust,105 Windsor Road, ,Bellevue,Tauranga,3110,,-37.6798875,176.1289837
CC50315,The One Victoria Trust Board Incorporated,1 Victoria Street,Waikato Mail Centre,Hamilton Central,Hamilton,3204,,-37.7923149,175.2874267
CC50105,Growing Places Charitable Trust,72 Majoribanks Street, ,Mount Victoria,Wellington,6011,,-41.2954888,174.7879071
CC50103,Out and About Life Education Trust,3 Torkar Road,, ,Clarks Beach,2122,,-37.1340734,174.70806
CC50177,Khmer Incorporated,8 O'Connell Street, ,Manurewa,Auckland,2102,,-37.033096,174.8896705
CC50111,New Zealand Wheelchair Body Building Federation Charitable Trust Board,74 Howell Avenue, ,Riverlea,Hamilton,3216,,-37.8044051,175.3179136
CC50884,"""The Incubator"" Growing Art and Culture Charitable Trust Board",The Incubator,"The Historic Village , 159 17th Avenue", ,Tauranga,3112,,-37.7048381,176.1494385
CC50120,Alton Library and Coronation Hall Society Incorporated,611 Hursthouse Road,RD 2, ,Patea,4598,,-39.6844836,174.4717611
CC50219,Riverhead Rampage Incorporated,1002 Coatesville-Riverhead Highway,, ,Riverhead,820,,-36.7539637,174.5953585
CC50167,Wellington Christian Education Trust,58 Pembroke Road, ,Northland,Wellington,6012,,-41.2772806,174.7599175
CC50913,Morgan B Dance Trust,366 Lower Parihaka Road,RD 35,Pungarehu,Opunake,4685,,-39.2976663,173.7663516
CC50147,RECAP : The Society for the Resilience and Engagement of the Community of Ashhurst and Pohangina Incorporated,112 Lincoln Street,, ,Ashhurst,4810,,-40.2879423,175.7516811
CC50124,Stepping Stones Foundation,19 Jackson Street, ,College Estate,Whanganui,4500,,-39.9363163,175.0366032
CC50248,Taranaki Secondary Schools Sports Association,"Yarrow Stadium, Sport Taranaki Building",Maratahu Street,Westown,New Plymouth,4310,,-39.070694,174.066623
CC50386,"Te Rauhitanga o te Mano o Tipene, St Stephens School Old Boys' Association Incorporated",Flat 2,11 Gloaming Place,Conifer Grove,Takanini,2112,,-37.0446306,174.9141956
CC50292,Grace Global New Zealand Trust,827 Chapel Road, ,Shamrock Park,Auckland,2016,,-36.920002,174.9269535
CC50505,Mossburn District Charitable Trust,1263 Mossburn Lumsden Highway,RD 2,Mossburn,Lumsden,9792,,-45.6863576,168.2799896
CC50459,Impact Consulting Group,12 Grafton Road, ,Auckland Central,Auckland,1010,,-36.8532981,174.7709502
CC50129,1st seek God Charitable Trust,Flat 1,252 Bucklands Beach Road,Bucklands Beach,Auckland,2012,,-36.8823287,174.9121904
CC50256,Rotary Club of Highbrook Incorporated Charitable Trust,PO Box 204244,Highbrook,East Tamaki,Auckland,2161,,-36.9402154,174.8774972
CC50146,The Njombe Educational New Zealand Trust,26 Meadowgreen Drive,RD 3,Tamahere,Hamilton,3283,,-37.8136561,175.3313952
CC50139,University of Canterbury Hockey Club Incorporated,C/O UCSA,90 Ilam Road,Ilam,Christchurch,8041,,-43.5242609,172.580083
CC50276,Point 5 Foundation Charitable Trust of New Zealand,35 Paton Place,, ,Te Anau,9600,,-45.4086741,167.7331656
CC50168,Pan Pacific Restoration,83 Retreat Drive, ,Mangere,Auckland,2022,,-36.9855454,174.8152485
CC50164,Greenstone Doors Charitable Trust,194 Naenae Road, ,Naenae,Lower Hutt,5011,,-41.2011927,174.9538124
CC50358,Otaki and District Memorial RSA Incorporated Poppy Trust,9 Raukawa Street,Ōtaki 5512,Otaki Beach,Ōtaki,5512,,-40.7520207,175.1400135
CC50161,Puaseisei Atia'e Trust,41 Winthrop Way, ,Mangere East,Auckland,2024,,-36.972733,174.8251796
CC50198,Saewoomtor,35 Pinedale Place, ,Henderson,Auckland,0610,,-36.8682401,174.6246422
CC50382,Age Concern Hauraki Coromandel Incorporated,200 Mary Street,Thames 3500, ,Thames,3500,,-37.1384387,175.5409832
CC50286,The Dutch School Auckland,37 John Brian Drive,RD 4,Redvale,Albany,0794,,-36.6887531,174.7086398
CC50223,Second Chance,29 Goddard Road,RD 1,Tasman,Upper Moutere,7173,,-41.1905706,173.0482955
CC50288,Living Grace Baptist Church and Ministries,50 Paragon Avenue, ,Beach Haven,Auckland,0626,,-36.7866271,174.6910319
CC50587,LUG 4/2 Incorporated,60 Cathedral Square, ,Christchurch Central,Christchurch,8011,,-43.5300625,172.6371182
CC50188,HE KĀKANO YOUTH & COMMUNITY TRUST,12 Wellington Street,, ,Russell,0202,,-35.2598756,174.1193641
CC50437,Cauldron of the four winds,494 Makarau Road,RD 3, ,Kaukapakapa,0873,,-36.5588257,174.5101814
CC50157,Roy & Joan Watson Trust,C/- Wellington Hospitals Foundation,Wellington Hospital,Newtown,Wellington,6242,,-41.3088763,174.7800823
CC50166,Napier RSA Poppy Charitable Trust,34 Vautier Street, ,Napier South,Napier,4110,,-39.4941257,176.917919
CC50284,Westminster Property Trust,31 Westminster Gardens, ,Unsworth Heights,Auckland,632,,-36.7596901,174.7116902
CC50227,The Campaign for Wool New Zealand Trust,50A Ossian Street,15 Shakespeare Road,Ahuriri,Napier,4110,,-39.48528,176.8991334
CC50280,Te Aute Trust Board Incorporated,LEVEL 4,123 Carlton Gore Road,Newmarket,Auckland,1023,,-36.8653899,174.7766623
CC50268,Cornerstone Community Church,18 Allright Place, ,Mount Wellington,Auckland,1060,,-36.911225,174.8482842
CC50237,MIGRANT AND ETHNIC COMMUNITY SUPPORT TRUST,24 Bordesley Street,,Phillipstown,Christchurch,8011,,-43.5405793,172.6631758
CC50195,iEngagEd Limited,University of Waikato,Financial Services Division,"Gate 5, Hillcrest Road",Hamilton,3240,,-37.7972398,175.3147998
CC50351,Tauranga Village Radio Museum Incorporated,Historic Village,17th Avenue West, Gate Pa,Tauranga,,,-37.7045373,176.1485378
CC50207,Hope Rescue Trust,620 Karaka Road,RD 1,Karaka,Papakura,2580,,-37.134121,174.8898579
CC50249,Word of Life Community Church ,4 Woolaston Place, ,Flat Bush,Auckland,2016,,-36.9613012,174.9345361
CC50537,Ivor Walter Stickley Charitable Trust,381 Alexandra Street,, ,Te Awamutu,3800,,-38.0091981,175.3213356
CC50266,The Potters House Christian Centre Central Auckland,239 Green Lane West, ,Epsom,Auckland,1051,,-36.8926577,174.7758278
CC50640,New Zealand Asia Trust,8 Lauchlan Avenue, ,Epsom,Auckland,1023,,-36.9050552,174.7727207
CC50504,The Word Ministry Church,17 Tilberg Street, ,Favona,Auckland,2024,,-36.953631,174.8007519
CC50364,Stellar Singers Incorporated,26 Auld Street, ,Torbay,Auckland,630,,-36.6948042,174.7556099
CC50541,HIPPY Taupo Charitable Trust,344 Lake Terrace,, ,Taupo,,,-38.7155638,176.084477
CC50742,Conservation International Aotearoa Limited,"c/o Dean of Science , Rm 302-660, Bldg 302"," University of Auckland, 23 Symonds St,",Auckland Central,Auckland,1010,,-36.8533237,174.7683709
CC50517,Taupo Waka Ama Club Incorporated,43 Mere Road,, ,Taupo,3330,,-38.6945762,176.0849197
CC50293,Peace Promise Limited,32 Aberfoyle Street, ,Epsom,Auckland,1023,,-36.8891448,174.7635957
CC50337,Living Water Assembly of God Trust,39 Naylors Drive, ,Mangere,Auckland,2022,,-36.9801665,174.7937547
CC50377,Impact Gymsport Academy Incorporated,"Pavillion 1, ASB Arena",81 Truman Lane, ,Mount Maunganui,3116,,-37.6854021,176.2254048
CC50712,Bible Baptist Church Christchurch,326 Halswell Road, ,Halswell,Christchurch,8025,,-43.5778195,172.5670805
CC50525,Christchurch Arts Audience Development Trust,329 Durham Street North, ,Christchurch Central,Christchurch,8013,,-43.5272224,172.6334125
CC50306,New Zealand Young Singers In Harmony Trust,69 Rutherford Street, ,Hutt Central,Lower Hutt,5010,,-41.2078875,174.9042365
CC50480,The Methodist Church Of New Zealand Haahi Weteriana O Aotearoa Birkenhead Samoan Parish (9530),237 Onewa Road, ,Birkenhead,Auckland,0626,,-36.8097451,174.7259468
CC50302,SOUTH ASIAN TRUST INCORPORATED,15A,Norman Spencer Drive,Papatoetoe,Auckland,2104,,-36.987511,174.8678835
CC50218,ME/CFS Support (Auckland) Incorporated,Unit 29,Tuscany Towers,New Lynn,Auckland,0600,,-36.9089749,174.6775009
CC50779,Tuakau Emergency Services Charitable Trust,9 Coles Road,, ,Tuakau,2121,,-37.2706012,174.9474702
CC50228,Tumble Time Te Anau Incorporated,20 Luxmore Drive,Te Anau 9600, ,Te Anau,9600,,-45.4161001,167.7178622
